{"512": {"availableDocks": 18, "totalDocks": 27, "city": "", "altitude": "", "stAddress2": "", "longitude": -73.99839279, "lastCommunicationTime": null, "postalCode": "", "statusValue": "In Service", "testStation": false, "stAddress1": "W 29 Street & 9 Avenue", "stationName": "W 29 Street & 9 Avenue", "landMark": "", "latitude": 40.7500727, "statusKey": 1, "availableBikes": 8, "id": 512, "location": ""}, "513": {"availableDocks": 23, "totalDocks": 27, "city": "", "altitude": "", "stAddress2": "", "longitude": -73.98780222, "lastCommunicationTime": null, "postalCode": "", "statusValue": "In Service", "testStation": false, "stAddress1": "W 59 Street and 10 Avenue", "stationName": "W 59 Street and 10 Avenue", "landMark": "", "latitude": 40.77044059, "statusKey": 1, "availableBikes": 2, "id": 513, "location": ""}, "514": {"availableDocks": 30, "totalDocks": 53, "city": "", "altitude": "", "stAddress2": "", "longitude": -74.00277668, "lastCommunicationTime": null, "postalCode": "", "statusValue": "In Service", "testStation": false, "stAddress1": "12 Avenue and W 40 Street", "stationName": "12 Avenue and W 40 Street", "landMark": "", "latitude": 40.76087502, "statusKey": 1, "availableBikes": 21, "id": 514, "location": ""}, "515": {"availableDocks": 34, "totalDocks": 35, "city": "", "altitude": "", "stAddress2": "", "longitude": -73.99461843, "lastCommunicationTime": null, "postalCode": "", "statusValue": "In Service", "testStation": false, "stAddress1": "W 43 Street & 10 Avenue", "stationName": "W 43 Street & 10 Avenue", "landMark": "", "latitude": 40.76009437, "statusKey": 1, "availableBikes": 0, "id": 515, "location": ""}, "517": {"availableDocks": 22, "totalDocks": 51, "city": "", "altitude": "", "stAddress2": "", "longitude": -73.97798848, "lastCommunicationTime": null, "postalCode": "", "statusValue": "In Service", "testStation": false, "stAddress1": "Pershing Square S", "stationName": "Pershing Square S", "landMark": "", "latitude": 40.75149263, "statusKey": 1, "availableBikes": 29, "id": 517, "location": ""}, "518": {"availableDocks": 16, "totalDocks": 39, "city": "", "altitude": "", "stAddress2": "", "longitude": -73.9734419, "lastCommunicationTime": null, "postalCode": "", "statusValue": "In Service", "testStation": false, "stAddress1": "E 39 Street and 2 Avenue", "stationName": "E 39 Street and 2 Avenue", "landMark": "", "latitude": 40.74780373, "statusKey": 1, "availableBikes": 19, "id": 518, "location": ""}, "519": {"availableDocks": 30, "totalDocks": 61, "city": "", "altitude": "", "stAddress2": "", "longitude": -73.97770164, "lastCommunicationTime": null, "postalCode": "", "statusValue": "Not In Service", "testStation": false, "stAddress1": "Pershing Square N", "stationName": "Pershing Square N", "landMark": "", "latitude": 40.75188406, "statusKey": 3, "availableBikes": 29, "id": 519, "location": ""}, "520": {"availableDocks": 22, "totalDocks": 39, "city": "", "altitude": "", "stAddress2": "", "longitude": -73.97648516, "lastCommunicationTime": null, "postalCode": "", "statusValue": "In Service", "testStation": false, "stAddress1": "W 52 Street & 5 Avenue", "stationName": "W 52 Street & 5 Avenue", "landMark": "", "latitude": 40.75992262, "statusKey": 1, "availableBikes": 16, "id": 520, "location": ""}, "521": {"availableDocks": 56, "totalDocks": 67, "city": "", "altitude": "", "stAddress2": "", "longitude": -73.99481051, "lastCommunicationTime": null, "postalCode": "", "statusValue": "In Service", "testStation": false, "stAddress1": "8 Avenue and W 31 Street", "stationName": "8 Avenue and W 31 Street", "landMark": "", "latitude": 40.75044999, "statusKey": 1, "availableBikes": 9, "id": 521, "location": ""}, "522": {"availableDocks": 14, "totalDocks": 51, "city": "", "altitude": "", "stAddress2": "", "longitude": -73.97207836, "lastCommunicationTime": null, "postalCode": "", "statusValue": "In Service", "testStation": false, "stAddress1": "E 51 St & Lexington Av", "stationName": "E 51 St & Lexington Av", "landMark": "", "latitude": 40.75714758, "statusKey": 1, "availableBikes": 34, "id": 522, "location": ""}, "523": {"availableDocks": 29, "totalDocks": 51, "city": "", "altitude": "", "stAddress2": "", "longitude": -73.99138152, "lastCommunicationTime": null, "postalCode": "", "statusValue": "In Service", "testStation": false, "stAddress1": "W 38 St & 8 Av", "stationName": "W 38 St & 8 Av", "landMark": "", "latitude": 40.75466591, "statusKey": 1, "availableBikes": 19, "id": 523, "location": ""}, "524": {"availableDocks": 22, "totalDocks": 57, "city": "", "altitude": "", "stAddress2": "", "longitude": -73.98316936, "lastCommunicationTime": null, "postalCode": "", "statusValue": "In Service", "testStation": false, "stAddress1": "W 43 Street & 6 Avenue", "stationName": "W 43 Street & 6 Avenue", "landMark": "", "latitude": 40.75527307, "statusKey": 1, "availableBikes": 29, "id": 524, "location": ""}, "525": {"availableDocks": 16, "totalDocks": 39, "city": "", "altitude": "", "stAddress2": "", "longitude": -74.0021163, "lastCommunicationTime": null, "postalCode": "", "statusValue": "In Service", "testStation": false, "stAddress1": "W 34 Street & 11 Avenue", "stationName": "W 34 Street & 11 Avenue", "landMark": "", "latitude": 40.75594159, "statusKey": 1, "availableBikes": 22, "id": 525, "location": ""}, "526": {"availableDocks": 18, "totalDocks": 43, "city": "", "altitude": "", "stAddress2": "", "longitude": -73.98490707, "lastCommunicationTime": null, "postalCode": "", "statusValue": "In Service", "testStation": false, "stAddress1": "E 33 St & 5 Av", "stationName": "E 33 St & 5 Av", "landMark": "", "latitude": 40.74765947, "statusKey": 1, "availableBikes": 22, "id": 526, "location": ""}, "527": {"availableDocks": 48, "totalDocks": 59, "city": "", "altitude": "", "stAddress2": "", "longitude": -73.97434726, "lastCommunicationTime": null, "postalCode": "", "statusValue": "In Service", "testStation": false, "stAddress1": "E 33 St & 1 Av", "stationName": "E 33 St & 1 Av", "landMark": "", "latitude": 40.74315566, "statusKey": 1, "availableBikes": 9, "id": 527, "location": ""}, "528": {"availableDocks": 27, "totalDocks": 39, "city": "", "altitude": "", "stAddress2": "", "longitude": -73.97706058, "lastCommunicationTime": null, "postalCode": "", "statusValue": "In Service", "testStation": false, "stAddress1": "2 Av & E 30 St", "stationName": "2 Av & E 30 St", "landMark": "", "latitude": 40.74290902, "statusKey": 1, "availableBikes": 11, "id": 528, "location": ""}, "529": {"availableDocks": 24, "totalDocks": 41, "city": "", "altitude": "", "stAddress2": "", "longitude": -73.99098507, "lastCommunicationTime": null, "postalCode": "", "statusValue": "In Service", "testStation": false, "stAddress1": "W 42 Street and 8 Avenue", "stationName": "W 42 Street and 8 Avenue", "landMark": "", "latitude": 40.7575699, "statusKey": 1, "availableBikes": 13, "id": 529, "location": ""}, "530": {"availableDocks": 19, "totalDocks": 36, "city": "", "altitude": "", "stAddress2": "", "longitude": -73.97493121, "lastCommunicationTime": null, "postalCode": "", "statusValue": "Not In Service", "testStation": false, "stAddress1": "DeKalb Av & S Portland Av", "stationName": "DeKalb Av & S Portland Av", "landMark": "", "latitude": 40.68981035, "statusKey": 3, "availableBikes": 13, "id": 530, "location": ""}, "531": {"availableDocks": 11, "totalDocks": 39, "city": "", "altitude": "", "stAddress2": "", "longitude": -73.99266288, "lastCommunicationTime": null, "postalCode": "", "statusValue": "In Service", "testStation": false, "stAddress1": "Forsyth St and Broome St", "stationName": "Forsyth St and Broome St", "landMark": "", "latitude": 40.71893904, "statusKey": 1, "availableBikes": 22, "id": 531, "location": ""}, "532": {"availableDocks": 25, "totalDocks": 43, "city": "", "altitude": "", "stAddress2": "", "longitude": -73.960876, "lastCommunicationTime": null, "postalCode": "", "statusValue": "In Service", "testStation": false, "stAddress1": "South 5 Pl and South 4 St", "stationName": "South 5 Pl and South 4 St", "landMark": "", "latitude": 40.710451, "statusKey": 1, "availableBikes": 17, "id": 532, "location": ""}, "534": {"availableDocks": 8, "totalDocks": 31, "city": "", "altitude": "", "stAddress2": "", "longitude": -74.0127234, "lastCommunicationTime": null, "postalCode": "", "statusValue": "In Service", "testStation": false, "stAddress1": "Water Whitehall Plaza", "stationName": "Water Whitehall Plaza", "landMark": "", "latitude": 40.70255065, "statusKey": 1, "availableBikes": 22, "id": 534, "location": ""}, "536": {"availableDocks": 6, "totalDocks": 29, "city": "", "altitude": "", "stAddress2": "", "longitude": -73.97536082, "lastCommunicationTime": null, "postalCode": "", "statusValue": "In Service", "testStation": false, "stAddress1": "1 Avenue and E 30 Street", "stationName": "1 Avenue and E 30 Street", "landMark": "", "latitude": 40.74144387, "statusKey": 1, "availableBikes": 23, "id": 536, "location": ""}, "537": {"availableDocks": 36, "totalDocks": 39, "city": "", "altitude": "", "stAddress2": "", "longitude": -73.98409214, "lastCommunicationTime": null, "postalCode": "", "statusValue": "In Service", "testStation": false, "stAddress1": "Lexington Av and E 24 St", "stationName": "Lexington Av and E 24 St", "landMark": "", "latitude": 40.74025878, "statusKey": 1, "availableBikes": 3, "id": 537, "location": ""}, "538": {"availableDocks": 6, "totalDocks": 39, "city": "", "altitude": "", "stAddress2": "", "longitude": -73.97787642, "lastCommunicationTime": null, "postalCode": "", "statusValue": "In Service", "testStation": false, "stAddress1": "W 49 Street & 5 Avenue", "stationName": "W 49 Street & 5 Avenue", "landMark": "", "latitude": 40.75795248, "statusKey": 1, "availableBikes": 28, "id": 538, "location": ""}, "539": {"availableDocks": 15, "totalDocks": 31, "city": "", "altitude": "", "stAddress2": "", "longitude": -73.96024116, "lastCommunicationTime": null, "postalCode": "", "statusValue": "In Service", "testStation": false, "stAddress1": "Metropolitan and Bedford", "stationName": "Metropolitan and Bedford", "landMark": "", "latitude": 40.71534825, "statusKey": 1, "availableBikes": 13, "id": 539, "location": ""}, "540": {"availableDocks": 14, "totalDocks": 39, "city": "", "altitude": "", "stAddress2": "", "longitude": -73.98320928, "lastCommunicationTime": null, "postalCode": "", "statusValue": "In Service", "testStation": false, "stAddress1": "Lexington Av and E 26 St", "stationName": "Lexington Av and E 26 St", "landMark": "", "latitude": 40.74147286, "statusKey": 1, "availableBikes": 23, "id": 540, "location": ""}, "2015": {"availableDocks": 0, "totalDocks": 0, "city": "", "altitude": "", "stAddress2": "", "longitude": -73.99180214, "lastCommunicationTime": null, "postalCode": "", "statusValue": "Planned", "testStation": false, "stAddress1": "W 31 Street and 7 Avenue", "stationName": "W 31 Street and 7 Avenue", "landMark": "", "latitude": 40.7490616, "statusKey": 2, "availableBikes": 0, "id": 2015, "location": ""}, "545": {"availableDocks": 11, "totalDocks": 27, "city": "", "altitude": "", "stAddress2": "", "longitude": -73.97809472, "lastCommunicationTime": null, "postalCode": "", "statusValue": "In Service", "testStation": false, "stAddress1": "E 23 St & 1 Av", "stationName": "E 23 St & 1 Av", "landMark": "PBSC", "latitude": 40.736502, "statusKey": 1, "availableBikes": 14, "id": 545, "location": "PBSC"}, "546": {"availableDocks": 11, "totalDocks": 38, "city": "", "altitude": "", "stAddress2": "", "longitude": -73.98303529, "lastCommunicationTime": null, "postalCode": "", "statusValue": "In Service", "testStation": false, "stAddress1": "E 30 St and Park Av South", "stationName": "E 30 St and Park Av South", "landMark": "", "latitude": 40.74444921, "statusKey": 1, "availableBikes": 23, "id": 546, "location": ""}, "2013": {"availableDocks": 0, "totalDocks": 0, "city": "", "altitude": "", "stAddress2": "", "longitude": -74.00271983, "lastCommunicationTime": null, "postalCode": "", "statusValue": "Planned", "testStation": false, "stAddress1": "Greenwich Av and 8 Av", "stationName": "Greenwich Av and 8 Av", "landMark": "", "latitude": 40.73915431, "statusKey": 2, "availableBikes": 0, "id": 2013, "location": ""}, "2003": {"availableDocks": 15, "totalDocks": 30, "city": "", "altitude": "", "stAddress2": "STX 277", "longitude": -73.98024289, "lastCommunicationTime": null, "postalCode": "", "statusValue": "In Service", "testStation": false, "stAddress1": "1 Av & 18 St", "stationName": "1 Av & 18 St", "landMark": "", "latitude": 40.73416059, "statusKey": 1, "availableBikes": 12, "id": 2003, "location": ""}, "72": {"availableDocks": 14, "totalDocks": 39, "city": "", "altitude": "", "stAddress2": "", "longitude": -73.99392888, "lastCommunicationTime": null, "postalCode": "", "statusValue": "In Service", "testStation": false, "stAddress1": "W 52 St & 11 Av", "stationName": "W 52 St & 11 Av", "landMark": "", "latitude": 40.76727216, "statusKey": 1, "availableBikes": 21, "id": 72, "location": ""}, "2000": {"availableDocks": 2, "totalDocks": 30, "city": "", "altitude": "", "stAddress2": "", "longitude": -73.98940236, "lastCommunicationTime": null, "postalCode": "", "statusValue": "In Service", "testStation": false, "stAddress1": "Front St & Washington St", "stationName": "Front St & Washington St", "landMark": "", "latitude": 40.70255088, "statusKey": 1, "availableBikes": 27, "id": 2000, "location": ""}, "79": {"availableDocks": 13, "totalDocks": 33, "city": "", "altitude": "", "stAddress2": "", "longitude": -74.00666661, "lastCommunicationTime": null, "postalCode": "", "statusValue": "In Service", "testStation": false, "stAddress1": "Franklin & West Broadway", "stationName": "Franklin & West Broadway", "landMark": "", "latitude": 40.71911552, "statusKey": 1, "availableBikes": 18, "id": 79, "location": ""}, "82": {"availableDocks": 3, "totalDocks": 27, "city": "", "altitude": "", "stAddress2": "", "longitude": -74.00016545, "lastCommunicationTime": null, "postalCode": "", "statusValue": "Not In Service", "testStation": false, "stAddress1": "St. James Pl & Pearl St", "stationName": "St. James Pl & Pearl St", "landMark": "", "latitude": 40.71117416, "statusKey": 3, "availableBikes": 19, "id": 82, "location": ""}, "83": {"availableDocks": 29, "totalDocks": 54, "city": "", "altitude": "", "stAddress2": "", "longitude": -73.97632328, "lastCommunicationTime": null, "postalCode": "", "statusValue": "In Service", "testStation": false, "stAddress1": "Atlantic Av & Ft. Greene Pl", "stationName": "Atlantic Av & Ft. Greene Pl", "landMark": "", "latitude": 40.68382604, "statusKey": 1, "availableBikes": 24, "id": 83, "location": ""}, "2024": {"availableDocks": 0, "totalDocks": 0, "city": "", "altitude": "", "stAddress2": "", "longitude": -73.97469473, "lastCommunicationTime": null, "postalCode": "", "statusValue": "Planned", "testStation": false, "stAddress1": "E 55 Street & 5 Avenue", "stationName": "E 55 Street & 5 Avenue", "landMark": "", "latitude": 40.76162122, "statusKey": 2, "availableBikes": 0, "id": 2024, "location": ""}, "2019": {"availableDocks": 0, "totalDocks": 0, "city": "", "altitude": "", "stAddress2": "", "longitude": -73.97187886, "lastCommunicationTime": null, "postalCode": "", "statusValue": "Planned", "testStation": false, "stAddress1": "E 48 Street and 3 Avenue", "stationName": "E 48 Street and 3 Avenue", "landMark": "", "latitude": 40.7546011, "statusKey": 2, "availableBikes": 0, "id": 2019, "location": ""}, "2014": {"availableDocks": 0, "totalDocks": 0, "city": "", "altitude": "", "stAddress2": "", "longitude": -73.97828553, "lastCommunicationTime": null, "postalCode": "", "statusValue": "Planned", "testStation": false, "stAddress1": "Lexington Av & E. 37th Street", "stationName": "Lexington Av & E. 37th Street", "landMark": "", "latitude": 40.74816819, "statusKey": 2, "availableBikes": 0, "id": 2014, "location": ""}, "116": {"availableDocks": 17, "totalDocks": 39, "city": "", "altitude": "", "stAddress2": "", "longitude": -74.00149746, "lastCommunicationTime": null, "postalCode": "", "statusValue": "In Service", "testStation": false, "stAddress1": "W 17 Street & 8 Avenue", "stationName": "W 17 Street & 8 Avenue", "landMark": "", "latitude": 40.74177603, "statusKey": 1, "availableBikes": 21, "id": 116, "location": ""}, "119": {"availableDocks": 9, "totalDocks": 19, "city": "", "altitude": "", "stAddress2": "", "longitude": -73.97803415, "lastCommunicationTime": null, "postalCode": "", "statusValue": "In Service", "testStation": false, "stAddress1": "Park Av & St. Edward's St", "stationName": "Park Av & St. Edward's St", "landMark": "", "latitude": 40.69608941, "statusKey": 1, "availableBikes": 8, "id": 119, "location": ""}, "120": {"availableDocks": 6, "totalDocks": 19, "city": "", "altitude": "", "stAddress2": "", "longitude": -73.95928168, "lastCommunicationTime": null, "postalCode": "", "statusValue": "In Service", "testStation": false, "stAddress1": "Lexington Av & Classon Av", "stationName": "Lexington Av & Classon Av", "landMark": "", "latitude": 40.68676793, "statusKey": 1, "availableBikes": 12, "id": 120, "location": ""}, "2009": {"availableDocks": 0, "totalDocks": 0, "city": "", "altitude": "", "stAddress2": "", "longitude": -73.99682619, "lastCommunicationTime": null, "postalCode": "", "statusValue": "Planned", "testStation": false, "stAddress1": "Catherine St & Monroe St", "stationName": "Catherine St & Monroe St", "landMark": "", "latitude": 40.71117444, "statusKey": 2, "availableBikes": 0, "id": 2009, "location": ""}, "127": {"availableDocks": 24, "totalDocks": 31, "city": "", "altitude": "", "stAddress2": "", "longitude": -74.00674436, "lastCommunicationTime": null, "postalCode": "", "statusValue": "In Service", "testStation": false, "stAddress1": "Barrow St & Hudson St", "stationName": "Barrow St & Hudson St", "landMark": "", "latitude": 40.73172428, "statusKey": 1, "availableBikes": 6, "id": 127, "location": ""}, "128": {"availableDocks": 1, "totalDocks": 30, "city": "", "altitude": "", "stAddress2": "", "longitude": -74.00297088, "lastCommunicationTime": null, "postalCode": "", "statusValue": "In Service", "testStation": false, "stAddress1": "MacDougal St & Prince St", "stationName": "MacDougal St & Prince St", "landMark": "", "latitude": 40.72710258, "statusKey": 1, "availableBikes": 24, "id": 128, "location": ""}, "2016": {"availableDocks": 0, "totalDocks": 0, "city": "", "altitude": "", "stAddress2": "", "longitude": -74.00295035, "lastCommunicationTime": null, "postalCode": "", "statusValue": "Planned", "testStation": false, "stAddress1": "W 26 Street & 10 Avenue", "stationName": "W 26 Street & 10 Avenue", "landMark": "", "latitude": 40.74971775, "statusKey": 2, "availableBikes": 0, "id": 2016, "location": ""}, "137": {"availableDocks": 21, "totalDocks": 30, "city": "", "altitude": "", "stAddress2": "", "longitude": -73.98130841, "lastCommunicationTime": null, "postalCode": "", "statusValue": "In Service", "testStation": false, "stAddress1": "Henry St & Grand St", "stationName": "Henry St & Grand St", "landMark": "", "latitude": 40.71425541, "statusKey": 1, "availableBikes": 5, "id": 137, "location": ""}, "143": {"availableDocks": 15, "totalDocks": 25, "city": "", "altitude": "", "stAddress2": "", "longitude": -73.99337909, "lastCommunicationTime": null, "postalCode": "", "statusValue": "Not In Service", "testStation": false, "stAddress1": "Clinton St & Joralemon St", "stationName": "Clinton St & Joralemon St", "landMark": "", "latitude": 40.69239502, "statusKey": 3, "availableBikes": 10, "id": 143, "location": ""}, "144": {"availableDocks": 11, "totalDocks": 19, "city": "", "altitude": "", "stAddress2": "", "longitude": -73.98068914, "lastCommunicationTime": null, "postalCode": "", "statusValue": "In Service", "testStation": false, "stAddress1": "Nassau St & Navy St", "stationName": "Nassau St & Navy St", "landMark": "", "latitude": 40.69839895, "statusKey": 1, "availableBikes": 8, "id": 144, "location": ""}, "146": {"availableDocks": 24, "totalDocks": 39, "city": "", "altitude": "", "stAddress2": "", "longitude": -74.0091059, "lastCommunicationTime": null, "postalCode": "", "statusValue": "In Service", "testStation": false, "stAddress1": "Hudson St and\u00c3?&nbsp;Reade St", "stationName": "Hudson St and\u00c3?&nbsp;Reade St", "landMark": "", "latitude": 40.71625008, "statusKey": 1, "availableBikes": 13, "id": 146, "location": ""}, "147": {"availableDocks": 6, "totalDocks": 33, "city": "", "altitude": "", "stAddress2": "", "longitude": -74.01121978, "lastCommunicationTime": null, "postalCode": "", "statusValue": "In Service", "testStation": false, "stAddress1": "Greenwich St & Warren St", "stationName": "Greenwich St & Warren St", "landMark": "", "latitude": 40.71542197, "statusKey": 1, "availableBikes": 23, "id": 147, "location": ""}, "150": {"availableDocks": 11, "totalDocks": 31, "city": "", "altitude": "", "stAddress2": "", "longitude": -73.98085795, "lastCommunicationTime": null, "postalCode": "", "statusValue": "In Service", "testStation": false, "stAddress1": "E 2 Street & Avenue C", "stationName": "E 2 Street & Avenue C", "landMark": "", "latitude": 40.7208736, "statusKey": 1, "availableBikes": 15, "id": 150, "location": ""}, "151": {"availableDocks": 4, "totalDocks": 33, "city": "", "altitude": "", "stAddress2": "", "longitude": -73.99720307, "lastCommunicationTime": null, "postalCode": "", "statusValue": "In Service", "testStation": false, "stAddress1": "Cleveland Pl & Spring St", "stationName": "Cleveland Pl & Spring St", "landMark": "", "latitude": 40.7218158, "statusKey": 1, "availableBikes": 25, "id": 151, "location": ""}, "152": {"availableDocks": 8, "totalDocks": 29, "city": "", "altitude": "", "stAddress2": "", "longitude": -74.00910627, "lastCommunicationTime": null, "postalCode": "", "statusValue": "In Service", "testStation": false, "stAddress1": "Warren St & Church St", "stationName": "Warren St & Church St", "landMark": "", "latitude": 40.71473993, "statusKey": 1, "availableBikes": 16, "id": 152, "location": ""}, "2022": {"availableDocks": 0, "totalDocks": 0, "city": "", "altitude": "", "stAddress2": "", "longitude": -73.95920622, "lastCommunicationTime": null, "postalCode": "", "statusValue": "Planned", "testStation": false, "stAddress1": "E 59th Street and Sutton Pl", "stationName": "E 59th Street and Sutton Pl", "landMark": "", "latitude": 40.75849116, "statusKey": 2, "availableBikes": 0, "id": 2022, "location": ""}, "157": {"availableDocks": 14, "totalDocks": 23, "city": "", "altitude": "", "stAddress2": "", "longitude": -73.99612349, "lastCommunicationTime": null, "postalCode": "", "statusValue": "Not In Service", "testStation": false, "stAddress1": "Henry St & Atlantic Av", "stationName": "Henry St & Atlantic Av", "landMark": "", "latitude": 40.69089272, "statusKey": 3, "availableBikes": 8, "id": 157, "location": ""}, "161": {"availableDocks": 25, "totalDocks": 35, "city": "", "altitude": "", "stAddress2": "", "longitude": -73.99810231, "lastCommunicationTime": null, "postalCode": "", "statusValue": "In Service", "testStation": false, "stAddress1": "LaGuardia Pl & W 3 St", "stationName": "LaGuardia Pl & W 3 St", "landMark": "", "latitude": 40.72917025, "statusKey": 1, "availableBikes": 9, "id": 161, "location": ""}, "2025": {"availableDocks": 0, "totalDocks": 0, "city": "", "altitude": "", "stAddress2": "", "longitude": -73.97371465, "lastCommunicationTime": null, "postalCode": "", "statusValue": "Planned", "testStation": false, "stAddress1": "Grand Army Plz & Central Park S", "stationName": "Grand Army Plz & Central Park S", "landMark": "", "latitude": 40.7643971, "statusKey": 2, "availableBikes": 0, "id": 2025, "location": ""}, "2017": {"availableDocks": 0, "totalDocks": 0, "city": "", "altitude": "", "stAddress2": "", "longitude": -73.97121414, "lastCommunicationTime": null, "postalCode": "", "statusValue": "Planned", "testStation": false, "stAddress1": "E 43 Street & 2 Avenue", "stationName": "E 43 Street & 2 Avenue", "landMark": "", "latitude": 40.75022392, "statusKey": 2, "availableBikes": 0, "id": 2017, "location": ""}, "164": {"availableDocks": 19, "totalDocks": 47, "city": "", "altitude": "", "stAddress2": "", "longitude": -73.97032517, "lastCommunicationTime": null, "postalCode": "", "statusValue": "In Service", "testStation": false, "stAddress1": "E 47 Street and 2 Avenue", "stationName": "E 47 Street and 2 Avenue", "landMark": "", "latitude": 40.75323098, "statusKey": 1, "availableBikes": 24, "id": 164, "location": ""}, "167": {"availableDocks": 22, "totalDocks": 45, "city": "", "altitude": "", "stAddress2": "", "longitude": -73.97604882, "lastCommunicationTime": null, "postalCode": "", "statusValue": "In Service", "testStation": false, "stAddress1": "E 39 St & 3 Av", "stationName": "E 39 St & 3 Av", "landMark": "", "latitude": 40.7489006, "statusKey": 1, "availableBikes": 18, "id": 167, "location": ""}, "173": {"availableDocks": 24, "totalDocks": 51, "city": "", "altitude": "", "stAddress2": "", "longitude": -73.98442659, "lastCommunicationTime": null, "postalCode": "", "statusValue": "Not In Service", "testStation": false, "stAddress1": "Broadway and W 49 Street", "stationName": "Broadway and W 49 Street", "landMark": "", "latitude": 40.76064679, "statusKey": 3, "availableBikes": 24, "id": 173, "location": ""}, "174": {"availableDocks": 17, "totalDocks": 30, "city": "", "altitude": "", "stAddress2": "", "longitude": -73.97738662, "lastCommunicationTime": null, "postalCode": "", "statusValue": "In Service", "testStation": false, "stAddress1": "E 25 Street and 1 Avenue", "stationName": "E 25 Street and 1 Avenue", "landMark": "", "latitude": 40.7381765, "statusKey": 1, "availableBikes": 11, "id": 174, "location": ""}, "2023": {"availableDocks": 0, "totalDocks": 0, "city": "", "altitude": "", "stAddress2": "", "longitude": -73.97031366, "lastCommunicationTime": null, "postalCode": "", "statusValue": "Planned", "testStation": false, "stAddress1": "E 55 St & Lexington Av", "stationName": "E 55 St & Lexington Av", "landMark": "", "latitude": 40.75968085, "statusKey": 2, "availableBikes": 0, "id": 2023, "location": ""}, "2006": {"availableDocks": 30, "totalDocks": 49, "city": "", "altitude": "", "stAddress2": "STX 287", "longitude": -73.97634151, "lastCommunicationTime": null, "postalCode": "", "statusValue": "Not In Service", "testStation": false, "stAddress1": "Central Park South & 6 Av", "stationName": "Central Park South & 6 Av", "landMark": "", "latitude": 40.76590936, "statusKey": 3, "availableBikes": 17, "id": 2006, "location": ""}, "2020": {"availableDocks": 0, "totalDocks": 0, "city": "", "altitude": "", "stAddress2": "", "longitude": -73.96603308, "lastCommunicationTime": null, "postalCode": "", "statusValue": "Planned", "testStation": false, "stAddress1": "E 55th Street and 2nd Av", "stationName": "E 55th Street and 2nd Av", "landMark": "", "latitude": 40.75797322, "statusKey": 2, "availableBikes": 0, "id": 2020, "location": ""}, "195": {"availableDocks": 1, "totalDocks": 45, "city": "", "altitude": "", "stAddress2": "", "longitude": -74.01043382, "lastCommunicationTime": null, "postalCode": "", "statusValue": "In Service", "testStation": false, "stAddress1": "Liberty St & Broadway", "stationName": "Liberty St & Broadway", "landMark": "", "latitude": 40.70905623, "statusKey": 1, "availableBikes": 43, "id": 195, "location": ""}, "2010": {"availableDocks": 0, "totalDocks": 0, "city": "", "altitude": "", "stAddress2": "", "longitude": -74.00234737, "lastCommunicationTime": null, "postalCode": "", "statusValue": "Planned", "testStation": false, "stAddress1": "Grand Street & Greene Street", "stationName": "Grand Street & Greene Street", "landMark": "", "latitude": 40.72165481, "statusKey": 2, "availableBikes": 0, "id": 2010, "location": ""}, "212": {"availableDocks": 10, "totalDocks": 28, "city": "", "altitude": "", "stAddress2": "", "longitude": -74.00681753, "lastCommunicationTime": null, "postalCode": "", "statusValue": "In Service", "testStation": false, "stAddress1": "W 16 St and the High Line", "stationName": "W 16 St and the High Line", "landMark": "", "latitude": 40.74334935, "statusKey": 1, "availableBikes": 14, "id": 212, "location": ""}, "216": {"availableDocks": 12, "totalDocks": 23, "city": "", "altitude": "", "stAddress2": "", "longitude": -73.99548059, "lastCommunicationTime": null, "postalCode": "", "statusValue": "In Service", "testStation": false, "stAddress1": "Columbia Hts & Cranberry", "stationName": "Columbia Hts & Cranberry", "landMark": "", "latitude": 40.70037867, "statusKey": 1, "availableBikes": 8, "id": 216, "location": ""}, "217": {"availableDocks": 18, "totalDocks": 39, "city": "", "altitude": "", "stAddress2": "", "longitude": -73.99383605, "lastCommunicationTime": null, "postalCode": "", "statusValue": "In Service", "testStation": false, "stAddress1": "Old Fulton Street", "stationName": "Old Fulton Street", "landMark": "", "latitude": 40.70277159, "statusKey": 1, "availableBikes": 15, "id": 217, "location": ""}, "218": {"availableDocks": 24, "totalDocks": 39, "city": "", "altitude": "", "stAddress2": "", "longitude": -73.98707105, "lastCommunicationTime": null, "postalCode": "", "statusValue": "In Service", "testStation": false, "stAddress1": "Gallatin Pl & Livingston St", "stationName": "Gallatin Pl & Livingston St", "landMark": "", "latitude": 40.69028437, "statusKey": 1, "availableBikes": 15, "id": 218, "location": ""}, "223": {"availableDocks": 15, "totalDocks": 33, "city": "", "altitude": "", "stAddress2": "", "longitude": -73.99994661, "lastCommunicationTime": null, "postalCode": "", "statusValue": "In Service", "testStation": false, "stAddress1": "W 13 Street and 7 Avenue", "stationName": "W 13 Street and 7 Avenue", "landMark": "", "latitude": 40.73781509, "statusKey": 1, "availableBikes": 17, "id": 223, "location": ""}, "224": {"availableDocks": 11, "totalDocks": 31, "city": "", "altitude": "", "stAddress2": "", "longitude": -74.00552427, "lastCommunicationTime": null, "postalCode": "", "statusValue": "In Service", "testStation": false, "stAddress1": "Spruce St & Nassau St", "stationName": "Spruce St & Nassau St", "landMark": "", "latitude": 40.71146364, "statusKey": 1, "availableBikes": 18, "id": 224, "location": ""}, "225": {"availableDocks": 18, "totalDocks": 37, "city": "", "altitude": "", "stAddress2": "", "longitude": -74.00803013, "lastCommunicationTime": null, "postalCode": "", "statusValue": "In Service", "testStation": false, "stAddress1": "W 14 St & the High Line", "stationName": "W 14 St & the High Line", "landMark": "", "latitude": 40.74195138, "statusKey": 1, "availableBikes": 19, "id": 225, "location": ""}, "229": {"availableDocks": 10, "totalDocks": 27, "city": "", "altitude": "", "stAddress2": "", "longitude": -73.99379025, "lastCommunicationTime": null, "postalCode": "", "statusValue": "In Service", "testStation": false, "stAddress1": "Great Jones Street", "stationName": "Great Jones Street", "landMark": "", "latitude": 40.72743423, "statusKey": 1, "availableBikes": 15, "id": 229, "location": ""}, "2001": {"availableDocks": 5, "totalDocks": 15, "city": "", "altitude": "", "stAddress2": "", "longitude": -73.97332996, "lastCommunicationTime": null, "postalCode": "", "statusValue": "In Service", "testStation": false, "stAddress1": "7th Av & Farragut St", "stationName": "7th Av & Farragut St", "landMark": "", "latitude": 40.69892054, "statusKey": 1, "availableBikes": 10, "id": 2001, "location": ""}, "232": {"availableDocks": 12, "totalDocks": 23, "city": "", "altitude": "", "stAddress2": "", "longitude": -73.99014892, "lastCommunicationTime": null, "postalCode": "", "statusValue": "In Service", "testStation": false, "stAddress1": "Cadman Plz E & Tillary", "stationName": "Cadman Plz E & Tillary", "landMark": "", "latitude": 40.69597683, "statusKey": 1, "availableBikes": 10, "id": 232, "location": ""}, "233": {"availableDocks": 8, "totalDocks": 39, "city": "", "altitude": "", "stAddress2": "", "longitude": -73.98963911, "lastCommunicationTime": null, "postalCode": "", "statusValue": "In Service", "testStation": false, "stAddress1": "Joralemon St & Adams St", "stationName": "Joralemon St & Adams St", "landMark": "", "latitude": 40.69246277, "statusKey": 1, "availableBikes": 30, "id": 233, "location": ""}, "236": {"availableDocks": 21, "totalDocks": 39, "city": "", "altitude": "", "stAddress2": "", "longitude": -73.98713956, "lastCommunicationTime": null, "postalCode": "", "statusValue": "In Service", "testStation": false, "stAddress1": "St. Mark's Pl & 2 Av", "stationName": "St. Mark's Pl & 2 Av", "landMark": "", "latitude": 40.7284186, "statusKey": 1, "availableBikes": 17, "id": 236, "location": ""}, "237": {"availableDocks": 36, "totalDocks": 39, "city": "", "altitude": "", "stAddress2": "", "longitude": -73.98672378, "lastCommunicationTime": null, "postalCode": "", "statusValue": "In Service", "testStation": false, "stAddress1": "E 11 Street & 2 Avenue", "stationName": "E 11 Street & 2 Avenue", "landMark": "", "latitude": 40.73047309, "statusKey": 1, "availableBikes": 2, "id": 237, "location": ""}, "238": {"availableDocks": 20, "totalDocks": 31, "city": "", "altitude": "", "stAddress2": "", "longitude": -74.00859207, "lastCommunicationTime": null, "postalCode": "", "statusValue": "In Service", "testStation": false, "stAddress1": "Bank St & Washington St", "stationName": "Bank St & Washington St", "landMark": "", "latitude": 40.7361967, "statusKey": 1, "availableBikes": 11, "id": 238, "location": ""}, "239": {"availableDocks": 16, "totalDocks": 31, "city": "", "altitude": "", "stAddress2": "", "longitude": -73.9813018, "lastCommunicationTime": null, "postalCode": "", "statusValue": "In Service", "testStation": false, "stAddress1": "Wiloughby St & Fleet St", "stationName": "Wiloughby St & Fleet St", "landMark": "", "latitude": 40.69196566, "statusKey": 1, "availableBikes": 13, "id": 239, "location": ""}, "242": {"availableDocks": 9, "totalDocks": 23, "city": "", "altitude": "", "stAddress2": "", "longitude": -73.97350332, "lastCommunicationTime": null, "postalCode": "", "statusValue": "In Service", "testStation": false, "stAddress1": "Flushing Av & Carlton Av", "stationName": "Flushing Av & Carlton Av", "landMark": "", "latitude": 40.69788349, "statusKey": 1, "availableBikes": 11, "id": 242, "location": ""}, "243": {"availableDocks": 9, "totalDocks": 19, "city": "", "altitude": "", "stAddress2": "", "longitude": -73.98051836, "lastCommunicationTime": null, "postalCode": "", "statusValue": "In Service", "testStation": false, "stAddress1": "Flatbush Av & Fulton St", "stationName": "Flatbush Av & Fulton St", "landMark": "", "latitude": 40.68866384, "statusKey": 1, "availableBikes": 10, "id": 243, "location": ""}, "244": {"availableDocks": 17, "totalDocks": 30, "city": "", "altitude": "", "stAddress2": "", "longitude": -73.96536851, "lastCommunicationTime": null, "postalCode": "", "statusValue": "In Service", "testStation": false, "stAddress1": "Willoughby Av & Hall St", "stationName": "Willoughby Av & Hall St", "landMark": "", "latitude": 40.69196035, "statusKey": 1, "availableBikes": 13, "id": 244, "location": ""}, "245": {"availableDocks": 9, "totalDocks": 23, "city": "", "altitude": "", "stAddress2": "", "longitude": -73.97703874, "lastCommunicationTime": null, "postalCode": "", "statusValue": "In Service", "testStation": false, "stAddress1": "Myrtle Av & St. Edward's St", "stationName": "Myrtle Av & St. Edward's St", "landMark": "", "latitude": 40.69327018, "statusKey": 1, "availableBikes": 11, "id": 245, "location": ""}, "247": {"availableDocks": 3, "totalDocks": 20, "city": "", "altitude": "", "stAddress2": "", "longitude": -74.00483091, "lastCommunicationTime": null, "postalCode": "", "statusValue": "In Service", "testStation": false, "stAddress1": "Perry St and Bleecker St", "stationName": "Perry St and Bleecker St", "landMark": "", "latitude": 40.73535398, "statusKey": 1, "availableBikes": 15, "id": 247, "location": ""}, "248": {"availableDocks": 11, "totalDocks": 23, "city": "", "altitude": "", "stAddress2": "", "longitude": -74.00771779, "lastCommunicationTime": null, "postalCode": "", "statusValue": "In Service", "testStation": false, "stAddress1": "Laight St & Hudson St", "stationName": "Laight St & Hudson St", "landMark": "", "latitude": 40.72185379, "statusKey": 1, "availableBikes": 11, "id": 248, "location": ""}, "249": {"availableDocks": 12, "totalDocks": 27, "city": "", "altitude": "", "stAddress2": "", "longitude": -74.0090009, "lastCommunicationTime": null, "postalCode": "", "statusValue": "In Service", "testStation": false, "stAddress1": "Harrison St and Hudson St", "stationName": "Harrison St and Hudson St", "landMark": "", "latitude": 40.71870987, "statusKey": 1, "availableBikes": 13, "id": 249, "location": ""}, "250": {"availableDocks": 8, "totalDocks": 40, "city": "", "altitude": "", "stAddress2": "", "longitude": -73.99565293, "lastCommunicationTime": null, "postalCode": "", "statusValue": "In Service", "testStation": false, "stAddress1": "Lafayette St & Jersey St", "stationName": "Lafayette St & Jersey St", "landMark": "", "latitude": 40.72456089, "statusKey": 1, "availableBikes": 29, "id": 250, "location": ""}, "251": {"availableDocks": 11, "totalDocks": 27, "city": "", "altitude": "", "stAddress2": "", "longitude": -73.99480012, "lastCommunicationTime": null, "postalCode": "", "statusValue": "In Service", "testStation": false, "stAddress1": "Mott St & Prince St", "stationName": "Mott St & Prince St", "landMark": "", "latitude": 40.72317958, "statusKey": 1, "availableBikes": 14, "id": 251, "location": ""}, "252": {"availableDocks": 32, "totalDocks": 33, "city": "", "altitude": "", "stAddress2": "", "longitude": -73.99852205, "lastCommunicationTime": null, "postalCode": "", "statusValue": "In Service", "testStation": false, "stAddress1": "MacDougal St & Washington Sq", "stationName": "MacDougal St & Washington Sq", "landMark": "", "latitude": 40.73226398, "statusKey": 1, "availableBikes": 1, "id": 252, "location": ""}, "253": {"availableDocks": 34, "totalDocks": 47, "city": "", "altitude": "", "stAddress2": "", "longitude": -73.99453948, "lastCommunicationTime": null, "postalCode": "", "statusValue": "In Service", "testStation": false, "stAddress1": "W 13 Street & 5 Avenue", "stationName": "W 13 Street & 5 Avenue", "landMark": "", "latitude": 40.73543934, "statusKey": 1, "availableBikes": 12, "id": 253, "location": ""}, "254": {"availableDocks": 24, "totalDocks": 31, "city": "", "altitude": "", "stAddress2": "", "longitude": -73.99800419, "lastCommunicationTime": null, "postalCode": "", "statusValue": "In Service", "testStation": false, "stAddress1": "W 11 Street & 6 Avenue", "stationName": "W 11 Street & 6 Avenue", "landMark": "", "latitude": 40.73532427, "statusKey": 1, "availableBikes": 5, "id": 254, "location": ""}, "2005": {"availableDocks": 6, "totalDocks": 12, "city": "", "altitude": "", "stAddress2": "", "longitude": -73.97100056, "lastCommunicationTime": null, "postalCode": "", "statusValue": "In Service", "testStation": false, "stAddress1": "Railroad Av & Kay Av", "stationName": "Railroad Av & Kay Av", "landMark": "", "latitude": 40.70531194, "statusKey": 1, "availableBikes": 6, "id": 2005, "location": ""}, "257": {"availableDocks": 20, "totalDocks": 39, "city": "", "altitude": "", "stAddress2": "", "longitude": -74.00247214, "lastCommunicationTime": null, "postalCode": "", "statusValue": "In Service", "testStation": false, "stAddress1": "Lispenard St & Broadway", "stationName": "Lispenard St & Broadway", "landMark": "", "latitude": 40.71939226, "statusKey": 1, "availableBikes": 16, "id": 257, "location": ""}, "258": {"availableDocks": 23, "totalDocks": 23, "city": "", "altitude": "", "stAddress2": "", "longitude": -73.96885458, "lastCommunicationTime": null, "postalCode": "", "statusValue": "In Service", "testStation": false, "stAddress1": "DeKalb Av & Vanderbilt Av", "stationName": "DeKalb Av & Vanderbilt Av", "landMark": "", "latitude": 40.68940747, "statusKey": 1, "availableBikes": 0, "id": 258, "location": ""}, "259": {"availableDocks": 1, "totalDocks": 29, "city": "", "altitude": "", "stAddress2": "", "longitude": -74.01234218, "lastCommunicationTime": null, "postalCode": "", "statusValue": "In Service", "testStation": false, "stAddress1": "South St and Whitehall St", "stationName": "South St and Whitehall St", "landMark": "", "latitude": 40.70122128, "statusKey": 1, "availableBikes": 26, "id": 259, "location": ""}, "260": {"availableDocks": 6, "totalDocks": 35, "city": "", "altitude": "", "stAddress2": "", "longitude": -74.01167797, "lastCommunicationTime": null, "postalCode": "", "statusValue": "In Service", "testStation": false, "stAddress1": "Broad St and Bridge St", "stationName": "Broad St and Bridge St", "landMark": "", "latitude": 40.70365182, "statusKey": 1, "availableBikes": 28, "id": 260, "location": ""}, "261": {"availableDocks": 8, "totalDocks": 27, "city": "", "altitude": "", "stAddress2": "", "longitude": -73.98362464, "lastCommunicationTime": null, "postalCode": "", "statusValue": "In Service", "testStation": false, "stAddress1": "Johnson St & Gold St", "stationName": "Johnson St & Gold St", "landMark": "", "latitude": 40.69474881, "statusKey": 1, "availableBikes": 16, "id": 261, "location": ""}, "262": {"availableDocks": 12, "totalDocks": 24, "city": "", "altitude": "", "stAddress2": "", "longitude": -73.97372989, "lastCommunicationTime": null, "postalCode": "", "statusValue": "In Service", "testStation": false, "stAddress1": "Washington Park", "stationName": "Washington Park", "landMark": "", "latitude": 40.69178232, "statusKey": 1, "availableBikes": 12, "id": 262, "location": ""}, "264": {"availableDocks": 1, "totalDocks": 27, "city": "", "altitude": "", "stAddress2": "", "longitude": -74.00731853, "lastCommunicationTime": null, "postalCode": "", "statusValue": "In Service", "testStation": false, "stAddress1": "Maiden Lane & Pearl St", "stationName": "Maiden Lane & Pearl St", "landMark": "", "latitude": 40.70706456, "statusKey": 1, "availableBikes": 25, "id": 264, "location": ""}, "265": {"availableDocks": 14, "totalDocks": 35, "city": "", "altitude": "", "stAddress2": "", "longitude": -73.99147535, "lastCommunicationTime": null, "postalCode": "", "statusValue": "In Service", "testStation": false, "stAddress1": "Stanton St & Chrystie St", "stationName": "Stanton St & Chrystie St", "landMark": "", "latitude": 40.72229346, "statusKey": 1, "availableBikes": 15, "id": 265, "location": ""}, "266": {"availableDocks": 10, "totalDocks": 24, "city": "", "altitude": "", "stAddress2": "", "longitude": -73.97574813, "lastCommunicationTime": null, "postalCode": "", "statusValue": "In Service", "testStation": false, "stAddress1": "Avenue D & E 8 Street", "stationName": "Avenue D & E 8 Street", "landMark": "", "latitude": 40.72368361, "statusKey": 1, "availableBikes": 10, "id": 266, "location": ""}, "267": {"availableDocks": 28, "totalDocks": 57, "city": "", "altitude": "", "stAddress2": "", "longitude": -73.98765428, "lastCommunicationTime": null, "postalCode": "", "statusValue": "In Service", "testStation": false, "stAddress1": "Broadway & W 36 St", "stationName": "Broadway & W 36 St", "landMark": "", "latitude": 40.75097711, "statusKey": 1, "availableBikes": 22, "id": 267, "location": ""}, "268": {"availableDocks": 4, "totalDocks": 35, "city": "", "altitude": "", "stAddress2": "", "longitude": -73.99973337, "lastCommunicationTime": null, "postalCode": "", "statusValue": "In Service", "testStation": false, "stAddress1": "Howard St & Centre St", "stationName": "Howard St & Centre St", "landMark": "", "latitude": 40.71910537, "statusKey": 1, "availableBikes": 25, "id": 268, "location": ""}, "270": {"availableDocks": 13, "totalDocks": 23, "city": "", "altitude": "", "stAddress2": "", "longitude": -73.97178913, "lastCommunicationTime": null, "postalCode": "", "statusValue": "In Service", "testStation": false, "stAddress1": "Adelphi St & Myrtle Av", "stationName": "Adelphi St & Myrtle Av", "landMark": "", "latitude": 40.69308257, "statusKey": 1, "availableBikes": 10, "id": 270, "location": ""}, "271": {"availableDocks": 19, "totalDocks": 39, "city": "", "altitude": "", "stAddress2": "", "longitude": -73.97805813, "lastCommunicationTime": null, "postalCode": "", "statusValue": "In Service", "testStation": false, "stAddress1": "Ashland Pl & Hanson Pl", "stationName": "Ashland Pl & Hanson Pl", "landMark": "", "latitude": 40.68528172, "statusKey": 1, "availableBikes": 14, "id": 271, "location": ""}, "2008": {"availableDocks": 0, "totalDocks": 0, "city": "", "altitude": "", "stAddress2": "", "longitude": -74.01677685, "lastCommunicationTime": null, "postalCode": "", "statusValue": "Planned", "testStation": false, "stAddress1": "Little West St and 1 Place", "stationName": "Little West St and 1 Place", "landMark": "", "latitude": 40.70569254, "statusKey": 2, "availableBikes": 0, "id": 2008, "location": ""}, "274": {"availableDocks": 22, "totalDocks": 31, "city": "", "altitude": "", "stAddress2": "", "longitude": -73.976682, "lastCommunicationTime": null, "postalCode": "", "statusValue": "In Service", "testStation": false, "stAddress1": "Lafayette Av & Ft. Greene Pl", "stationName": "Lafayette Av & Ft. Greene Pl", "landMark": "", "latitude": 40.68691865, "statusKey": 1, "availableBikes": 9, "id": 274, "location": ""}, "275": {"availableDocks": 17, "totalDocks": 19, "city": "", "altitude": "", "stAddress2": "", "longitude": -73.96563307, "lastCommunicationTime": null, "postalCode": "", "statusValue": "In Service", "testStation": false, "stAddress1": "Washington Av & Greene Av", "stationName": "Washington Av & Greene Av", "landMark": "", "latitude": 40.68650065, "statusKey": 1, "availableBikes": 2, "id": 275, "location": ""}, "276": {"availableDocks": 22, "totalDocks": 25, "city": "", "altitude": "", "stAddress2": "", "longitude": -74.0104554, "lastCommunicationTime": null, "postalCode": "", "statusValue": "In Service", "testStation": false, "stAddress1": "Duane St & Greenwich St", "stationName": "Duane St & Greenwich St", "landMark": "", "latitude": 40.71748752, "statusKey": 1, "availableBikes": 1, "id": 276, "location": ""}, "278": {"availableDocks": 11, "totalDocks": 19, "city": "", "altitude": "", "stAddress2": "", "longitude": -73.98476437, "lastCommunicationTime": null, "postalCode": "", "statusValue": "In Service", "testStation": false, "stAddress1": "Concord St & Bridge St", "stationName": "Concord St & Bridge St", "landMark": "", "latitude": 40.69766564, "statusKey": 1, "availableBikes": 7, "id": 278, "location": ""}, "279": {"availableDocks": 4, "totalDocks": 19, "city": "", "altitude": "", "stAddress2": "", "longitude": -73.98271933, "lastCommunicationTime": null, "postalCode": "", "statusValue": "In Service", "testStation": false, "stAddress1": "Sands St & Gold St", "stationName": "Sands St & Gold St", "landMark": "", "latitude": 40.69986937, "statusKey": 1, "availableBikes": 15, "id": 279, "location": ""}, "280": {"availableDocks": 12, "totalDocks": 31, "city": "", "altitude": "", "stAddress2": "", "longitude": -73.99510132, "lastCommunicationTime": null, "postalCode": "", "statusValue": "In Service", "testStation": false, "stAddress1": "E 10 Street & 5 Avenue", "stationName": "E 10 Street & 5 Avenue", "landMark": "", "latitude": 40.73331967, "statusKey": 1, "availableBikes": 16, "id": 280, "location": ""}, "282": {"availableDocks": 12, "totalDocks": 27, "city": "", "altitude": "", "stAddress2": "", "longitude": -73.96834101, "lastCommunicationTime": null, "postalCode": "", "statusValue": "In Service", "testStation": false, "stAddress1": "Kent & S 11", "stationName": "Kent & S 11", "landMark": "", "latitude": 40.70827295, "statusKey": 1, "availableBikes": 14, "id": 282, "location": ""}, "2021": {"availableDocks": 0, "totalDocks": 0, "city": "", "altitude": "", "stAddress2": "", "longitude": -73.98859651, "lastCommunicationTime": null, "postalCode": "", "statusValue": "Planned", "testStation": false, "stAddress1": "W 45 Street and 8 Avenue", "stationName": "W 45 Street and 8 Avenue", "landMark": "", "latitude": 40.75929124, "statusKey": 2, "availableBikes": 0, "id": 2021, "location": ""}, "2004": {"availableDocks": 1, "totalDocks": 36, "city": "", "altitude": "", "stAddress2": "", "longitude": -74.00445139, "lastCommunicationTime": null, "postalCode": "", "statusValue": "In Service", "testStation": false, "stAddress1": "Spring St & 6 Av", "stationName": "Spring St & 6 Av", "landMark": "", "latitude": 40.7255002, "statusKey": 1, "availableBikes": 31, "id": 2004, "location": ""}, "285": {"availableDocks": 26, "totalDocks": 47, "city": "", "altitude": "", "stAddress2": "", "longitude": -73.99074142, "lastCommunicationTime": null, "postalCode": "", "statusValue": "In Service", "testStation": false, "stAddress1": "Broadway and E 14 Street", "stationName": "Broadway and E 14 Street", "landMark": "", "latitude": 40.73454567, "statusKey": 1, "availableBikes": 20, "id": 285, "location": ""}, "289": {"availableDocks": 14, "totalDocks": 19, "city": "", "altitude": "", "stAddress2": "", "longitude": -73.95881081, "lastCommunicationTime": null, "postalCode": "", "statusValue": "In Service", "testStation": false, "stAddress1": "Monroe St & Classon Av", "stationName": "Monroe St & Classon Av", "landMark": "", "latitude": 40.6845683, "statusKey": 1, "availableBikes": 5, "id": 289, "location": ""}, "290": {"availableDocks": 16, "totalDocks": 29, "city": "", "altitude": "", "stAddress2": "", "longitude": -73.96478473, "lastCommunicationTime": null, "postalCode": "", "statusValue": "In Service", "testStation": false, "stAddress1": "2 Avenue & E 58 Street", "stationName": "2 Avenue & E 58 Street", "landMark": "", "latitude": 40.76020258, "statusKey": 1, "availableBikes": 9, "id": 290, "location": ""}, "291": {"availableDocks": 11, "totalDocks": 23, "city": "", "altitude": "", "stAddress2": "", "longitude": -73.98398567, "lastCommunicationTime": null, "postalCode": "", "statusValue": "In Service", "testStation": false, "stAddress1": "Gouverneur St & Madison St", "stationName": "Gouverneur St & Madison St", "landMark": "", "latitude": 40.71345221, "statusKey": 1, "availableBikes": 11, "id": 291, "location": ""}, "293": {"availableDocks": 49, "totalDocks": 55, "city": "", "altitude": "", "stAddress2": "", "longitude": -73.9907647, "lastCommunicationTime": null, "postalCode": "", "statusValue": "In Service", "testStation": false, "stAddress1": "Lafayette St & E 8 St", "stationName": "Lafayette St & E 8 St", "landMark": "", "latitude": 40.73028666, "statusKey": 1, "availableBikes": 5, "id": 293, "location": ""}, "294": {"availableDocks": 27, "totalDocks": 31, "city": "", "altitude": "", "stAddress2": "", "longitude": -73.9957214, "lastCommunicationTime": null, "postalCode": "", "statusValue": "In Service", "testStation": false, "stAddress1": "Washington Square East", "stationName": "Washington Square East", "landMark": "", "latitude": 40.73049393, "statusKey": 1, "availableBikes": 1, "id": 294, "location": ""}, "295": {"availableDocks": 8, "totalDocks": 24, "city": "", "altitude": "", "stAddress2": "", "longitude": -73.99293911, "lastCommunicationTime": null, "postalCode": "", "statusValue": "In Service", "testStation": false, "stAddress1": "Pike St & East Broadway", "stationName": "Pike St & East Broadway", "landMark": "", "latitude": 40.71406667, "statusKey": 1, "availableBikes": 14, "id": 295, "location": ""}, "296": {"availableDocks": 17, "totalDocks": 35, "city": "", "altitude": "", "stAddress2": "", "longitude": -73.9970468, "lastCommunicationTime": null, "postalCode": "", "statusValue": "In Service", "testStation": false, "stAddress1": "Division Street & Bowery", "stationName": "Division Street & Bowery", "landMark": "", "latitude": 40.71413089, "statusKey": 1, "availableBikes": 14, "id": 296, "location": ""}, "2012": {"availableDocks": 0, "totalDocks": 0, "city": "", "altitude": "", "stAddress2": "", "longitude": -73.97690655, "lastCommunicationTime": null, "postalCode": "", "statusValue": "Planned", "testStation": false, "stAddress1": "E 27 Street and 1 Avenue", "stationName": "E 27 Street and 1 Avenue", "landMark": "", "latitude": 40.73945846, "statusKey": 2, "availableBikes": 0, "id": 2012, "location": ""}, "298": {"availableDocks": 7, "totalDocks": 31, "city": "", "altitude": "", "stAddress2": "", "longitude": -73.9796772, "lastCommunicationTime": null, "postalCode": "", "statusValue": "In Service", "testStation": false, "stAddress1": "3rd Avenue & Flatbush Avenue", "stationName": "3rd Avenue & Flatbush Avenue", "landMark": "", "latitude": 40.68683208, "statusKey": 1, "availableBikes": 22, "id": 298, "location": ""}, "300": {"availableDocks": 0, "totalDocks": 32, "city": "", "altitude": "", "stAddress2": "", "longitude": -73.99051868, "lastCommunicationTime": null, "postalCode": "", "statusValue": "In Service", "testStation": false, "stAddress1": "Cooper Sq & E 7 St", "stationName": "Cooper Sq & E 7 St", "landMark": "", "latitude": 40.7289841, "statusKey": 1, "availableBikes": 0, "id": 300, "location": ""}, "301": {"availableDocks": 31, "totalDocks": 37, "city": "", "altitude": "", "stAddress2": "", "longitude": -73.98368779, "lastCommunicationTime": null, "postalCode": "", "statusValue": "Not In Service", "testStation": false, "stAddress1": "E 2 Street & Avenue B", "stationName": "E 2 Street & Avenue B", "landMark": "", "latitude": 40.72217444, "statusKey": 3, "availableBikes": 6, "id": 301, "location": ""}, "302": {"availableDocks": 11, "totalDocks": 23, "city": "", "altitude": "", "stAddress2": "", "longitude": -73.97793172, "lastCommunicationTime": null, "postalCode": "", "statusValue": "In Service", "testStation": false, "stAddress1": "Avenue D & E 3 Street", "stationName": "Avenue D & E 3 Street", "landMark": "", "latitude": 40.72082834, "statusKey": 1, "availableBikes": 12, "id": 302, "location": ""}, "303": {"availableDocks": 0, "totalDocks": 31, "city": "", "altitude": "", "stAddress2": "", "longitude": -73.99949601, "lastCommunicationTime": null, "postalCode": "", "statusValue": "In Service", "testStation": false, "stAddress1": "Mercer St & Spring St", "stationName": "Mercer St & Spring St", "landMark": "", "latitude": 40.72362738, "statusKey": 1, "availableBikes": 25, "id": 303, "location": ""}, "304": {"availableDocks": 4, "totalDocks": 36, "city": "", "altitude": "", "stAddress2": "", "longitude": -74.01361706, "lastCommunicationTime": null, "postalCode": "", "statusValue": "In Service", "testStation": false, "stAddress1": "Broadway & Battery Pl", "stationName": "Broadway & Battery Pl", "landMark": "", "latitude": 40.70463334, "statusKey": 1, "availableBikes": 27, "id": 304, "location": ""}, "305": {"availableDocks": 16, "totalDocks": 33, "city": "", "altitude": "", "stAddress2": "", "longitude": -73.96724467, "lastCommunicationTime": null, "postalCode": "", "statusValue": "In Service", "testStation": false, "stAddress1": "E 58 Street and 3 Avenue", "stationName": "E 58 Street and 3 Avenue", "landMark": "", "latitude": 40.76095756, "statusKey": 1, "availableBikes": 12, "id": 305, "location": ""}, "306": {"availableDocks": 16, "totalDocks": 37, "city": "", "altitude": "", "stAddress2": "", "longitude": -74.00530063, "lastCommunicationTime": null, "postalCode": "", "statusValue": "In Service", "testStation": false, "stAddress1": "Cliff St & Fulton St", "stationName": "Cliff St & Fulton St", "landMark": "", "latitude": 40.70823502, "statusKey": 1, "availableBikes": 18, "id": 306, "location": ""}, "307": {"availableDocks": 22, "totalDocks": 31, "city": "", "altitude": "", "stAddress2": "", "longitude": -73.98990025, "lastCommunicationTime": null, "postalCode": "", "statusValue": "In Service", "testStation": false, "stAddress1": "Canal St & Rutgers St", "stationName": "Canal St & Rutgers St", "landMark": "", "latitude": 40.71427487, "statusKey": 1, "availableBikes": 8, "id": 307, "location": ""}, "308": {"availableDocks": 15, "totalDocks": 27, "city": "", "altitude": "", "stAddress2": "", "longitude": -73.99851193, "lastCommunicationTime": null, "postalCode": "", "statusValue": "In Service", "testStation": false, "stAddress1": "St. James Pl & Oliver St", "stationName": "St. James Pl & Oliver St", "landMark": "", "latitude": 40.71307916, "statusKey": 1, "availableBikes": 8, "id": 308, "location": ""}, "309": {"availableDocks": 15, "totalDocks": 41, "city": "", "altitude": "", "stAddress2": "", "longitude": -74.013012, "lastCommunicationTime": null, "postalCode": "", "statusValue": "In Service", "testStation": false, "stAddress1": "Murray St & West St", "stationName": "Murray St & West St", "landMark": "", "latitude": 40.7149787, "statusKey": 1, "availableBikes": 21, "id": 309, "location": ""}, "310": {"availableDocks": 18, "totalDocks": 36, "city": "", "altitude": "", "stAddress2": "", "longitude": -73.98912867, "lastCommunicationTime": null, "postalCode": "", "statusValue": "In Service", "testStation": false, "stAddress1": "State St & Smith St", "stationName": "State St & Smith St", "landMark": "", "latitude": 40.68926942, "statusKey": 1, "availableBikes": 18, "id": 310, "location": ""}, "311": {"availableDocks": 18, "totalDocks": 31, "city": "", "altitude": "", "stAddress2": "", "longitude": -73.98802084, "lastCommunicationTime": null, "postalCode": "", "statusValue": "In Service", "testStation": false, "stAddress1": "Norfolk St & Broome St", "stationName": "Norfolk St & Broome St", "landMark": "", "latitude": 40.7172274, "statusKey": 1, "availableBikes": 8, "id": 311, "location": ""}, "312": {"availableDocks": 35, "totalDocks": 39, "city": "", "altitude": "", "stAddress2": "", "longitude": -73.98887365, "lastCommunicationTime": null, "postalCode": "", "statusValue": "In Service", "testStation": false, "stAddress1": "Allen St & E Houston St", "stationName": "Allen St & E Houston St", "landMark": "", "latitude": 40.72263214, "statusKey": 1, "availableBikes": 4, "id": 312, "location": ""}, "313": {"availableDocks": 14, "totalDocks": 23, "city": "", "altitude": "", "stAddress2": "", "longitude": -73.96751037, "lastCommunicationTime": null, "postalCode": "", "statusValue": "In Service", "testStation": false, "stAddress1": "Washington Av & Park Av", "stationName": "Washington Av & Park Av", "landMark": "", "latitude": 40.69610226, "statusKey": 1, "availableBikes": 8, "id": 313, "location": ""}, "314": {"availableDocks": 13, "totalDocks": 39, "city": "", "altitude": "", "stAddress2": "", "longitude": -73.99215922, "lastCommunicationTime": null, "postalCode": "", "statusValue": "Not In Service", "testStation": false, "stAddress1": "Montague St & Clinton St", "stationName": "Montague St & Clinton St", "landMark": "", "latitude": 40.69424674, "statusKey": 3, "availableBikes": 26, "id": 314, "location": ""}, "315": {"availableDocks": 5, "totalDocks": 29, "city": "", "altitude": "", "stAddress2": "", "longitude": -74.00670227, "lastCommunicationTime": null, "postalCode": "", "statusValue": "In Service", "testStation": false, "stAddress1": "South St & Gouverneur La", "stationName": "South St & Gouverneur La", "landMark": "", "latitude": 40.70355377, "statusKey": 1, "availableBikes": 22, "id": 315, "location": ""}, "316": {"availableDocks": 24, "totalDocks": 43, "city": "", "altitude": "", "stAddress2": "", "longitude": -74.00653609, "lastCommunicationTime": null, "postalCode": "", "statusValue": "In Service", "testStation": false, "stAddress1": "Fulton St and William St", "stationName": "Fulton St and William St", "landMark": "", "latitude": 40.70955958, "statusKey": 1, "availableBikes": 17, "id": 316, "location": ""}, "317": {"availableDocks": 27, "totalDocks": 27, "city": "", "altitude": "", "stAddress2": "", "longitude": -73.98185424, "lastCommunicationTime": null, "postalCode": "", "statusValue": "In Service", "testStation": false, "stAddress1": "E 6 Street & Avenue B", "stationName": "E 6 Street & Avenue B", "landMark": "", "latitude": 40.72453734, "statusKey": 1, "availableBikes": 0, "id": 317, "location": ""}, "318": {"availableDocks": 13, "totalDocks": 31, "city": "", "altitude": "", "stAddress2": "", "longitude": -73.9779874, "lastCommunicationTime": null, "postalCode": "", "statusValue": "In Service", "testStation": false, "stAddress1": "E 43 St & Vanderbilt Av", "stationName": "E 43 St & Vanderbilt Av", "landMark": "", "latitude": 40.75320159, "statusKey": 1, "availableBikes": 17, "id": 318, "location": ""}, "319": {"availableDocks": 2, "totalDocks": 35, "city": "", "altitude": "", "stAddress2": "", "longitude": -74.00937622, "lastCommunicationTime": null, "postalCode": "", "statusValue": "In Service", "testStation": false, "stAddress1": "Park Pl & Church S", "stationName": "Park Pl & Church S", "landMark": "", "latitude": 40.71336124, "statusKey": 1, "availableBikes": 33, "id": 319, "location": ""}, "320": {"availableDocks": 11, "totalDocks": 39, "city": "", "altitude": "", "stAddress2": "", "longitude": -74.00583475, "lastCommunicationTime": null, "postalCode": "", "statusValue": "In Service", "testStation": false, "stAddress1": "Church St & Leonard St", "stationName": "Church St & Leonard St", "landMark": "", "latitude": 40.71743998, "statusKey": 1, "availableBikes": 26, "id": 320, "location": ""}, "321": {"availableDocks": 14, "totalDocks": 27, "city": "", "altitude": "", "stAddress2": "", "longitude": -73.98971773, "lastCommunicationTime": null, "postalCode": "", "statusValue": "In Service", "testStation": false, "stAddress1": "Cadman Plz E & Red Cross", "stationName": "Cadman Plz E & Red Cross", "landMark": "", "latitude": 40.69991755, "statusKey": 1, "availableBikes": 11, "id": 321, "location": ""}, "322": {"availableDocks": 0, "totalDocks": 31, "city": "", "altitude": "", "stAddress2": "", "longitude": -73.99140477, "lastCommunicationTime": null, "postalCode": "", "statusValue": "In Service", "testStation": false, "stAddress1": "Clinton St & Tillary St", "stationName": "Clinton St & Tillary St", "landMark": "", "latitude": 40.69639528, "statusKey": 1, "availableBikes": 0, "id": 322, "location": ""}, "323": {"availableDocks": 18, "totalDocks": 39, "city": "", "altitude": "", "stAddress2": "", "longitude": -73.98631746, "lastCommunicationTime": null, "postalCode": "", "statusValue": "Not In Service", "testStation": false, "stAddress1": "Lawrence Street", "stationName": "Lawrence Street", "landMark": "", "latitude": 40.69236178, "statusKey": 3, "availableBikes": 20, "id": 323, "location": ""}, "324": {"availableDocks": 21, "totalDocks": 51, "city": "", "altitude": "", "stAddress2": "", "longitude": -73.981013, "lastCommunicationTime": null, "postalCode": "", "statusValue": "In Service", "testStation": false, "stAddress1": "DeKalb Av & Hudson Av", "stationName": "DeKalb Av & Hudson Av", "landMark": "", "latitude": 40.689888, "statusKey": 1, "availableBikes": 30, "id": 324, "location": ""}, "325": {"availableDocks": 29, "totalDocks": 35, "city": "", "altitude": "", "stAddress2": "", "longitude": -73.98473765, "lastCommunicationTime": null, "postalCode": "", "statusValue": "In Service", "testStation": false, "stAddress1": "E 19 Street and 3 Avenue", "stationName": "E 19 Street and 3 Avenue", "landMark": "", "latitude": 40.73624527, "statusKey": 1, "availableBikes": 4, "id": 325, "location": ""}, "326": {"availableDocks": 25, "totalDocks": 27, "city": "", "altitude": "", "stAddress2": "", "longitude": -73.98426726, "lastCommunicationTime": null, "postalCode": "", "statusValue": "In Service", "testStation": false, "stAddress1": "E 11 Street & 1 Avenue", "stationName": "E 11 Street & 1 Avenue", "landMark": "", "latitude": 40.72953837, "statusKey": 1, "availableBikes": 1, "id": 326, "location": ""}, "327": {"availableDocks": 13, "totalDocks": 39, "city": "", "altitude": "", "stAddress2": "", "longitude": -74.01658354, "lastCommunicationTime": null, "postalCode": "", "statusValue": "In Service", "testStation": false, "stAddress1": "Vesey Pl & River Terrace", "stationName": "Vesey Pl & River Terrace", "landMark": "", "latitude": 40.7153379, "statusKey": 1, "availableBikes": 15, "id": 327, "location": ""}, "328": {"availableDocks": 9, "totalDocks": 23, "city": "", "altitude": "", "stAddress2": "", "longitude": -74.00965965, "lastCommunicationTime": null, "postalCode": "", "statusValue": "In Service", "testStation": false, "stAddress1": "Watts St & Greenwich St", "stationName": "Watts St & Greenwich St", "landMark": "", "latitude": 40.72405549, "statusKey": 1, "availableBikes": 13, "id": 328, "location": ""}, "329": {"availableDocks": 1, "totalDocks": 31, "city": "", "altitude": "", "stAddress2": "", "longitude": -74.01020609, "lastCommunicationTime": null, "postalCode": "", "statusValue": "In Service", "testStation": false, "stAddress1": "Greenwich St & N Moore St", "stationName": "Greenwich St & N Moore St", "landMark": "", "latitude": 40.72043411, "statusKey": 1, "availableBikes": 27, "id": 329, "location": ""}, "330": {"availableDocks": 5, "totalDocks": 39, "city": "", "altitude": "", "stAddress2": "", "longitude": -74.00562789, "lastCommunicationTime": null, "postalCode": "", "statusValue": "In Service", "testStation": false, "stAddress1": "Reade Street & Broadway", "stationName": "Reade Street & Broadway", "landMark": "", "latitude": 40.71450451, "statusKey": 1, "availableBikes": 31, "id": 330, "location": ""}, "331": {"availableDocks": 19, "totalDocks": 27, "city": "", "altitude": "", "stAddress2": "", "longitude": -73.99193043, "lastCommunicationTime": null, "postalCode": "", "statusValue": "In Service", "testStation": false, "stAddress1": "Pike St & Monroe St", "stationName": "Pike St & Monroe St", "landMark": "", "latitude": 40.71173107, "statusKey": 1, "availableBikes": 7, "id": 331, "location": ""}, "332": {"availableDocks": 11, "totalDocks": 24, "city": "", "altitude": "", "stAddress2": "", "longitude": -73.97948148, "lastCommunicationTime": null, "postalCode": "", "statusValue": "In Service", "testStation": false, "stAddress1": "Cherry Street", "stationName": "Cherry Street", "landMark": "", "latitude": 40.71219906, "statusKey": 1, "availableBikes": 11, "id": 332, "location": ""}, "2018": {"availableDocks": 0, "totalDocks": 0, "city": "", "altitude": "", "stAddress2": "", "longitude": -73.9816324, "lastCommunicationTime": null, "postalCode": "", "statusValue": "Planned", "testStation": false, "stAddress1": "E 40th Street & 5th Avenue", "stationName": "E 40th Street & 5th Avenue", "landMark": "", "latitude": 40.75206232, "statusKey": 2, "availableBikes": 0, "id": 2018, "location": ""}, "334": {"availableDocks": 17, "totalDocks": 31, "city": "", "altitude": "", "stAddress2": "", "longitude": -73.99726235, "lastCommunicationTime": null, "postalCode": "", "statusValue": "Not In Service", "testStation": false, "stAddress1": "W 20 Street & 7 Avenue", "stationName": "W 20 Street & 7 Avenue", "landMark": "", "latitude": 40.74238787, "statusKey": 3, "availableBikes": 10, "id": 334, "location": ""}, "335": {"availableDocks": 16, "totalDocks": 27, "city": "", "altitude": "", "stAddress2": "", "longitude": -73.99404649, "lastCommunicationTime": null, "postalCode": "", "statusValue": "In Service", "testStation": false, "stAddress1": "xWashington Pl & Broadway", "stationName": "xWashington Pl & Broadway", "landMark": "", "latitude": 40.72903917, "statusKey": 1, "availableBikes": 10, "id": 335, "location": ""}, "336": {"availableDocks": 31, "totalDocks": 36, "city": "", "altitude": "", "stAddress2": "", "longitude": -73.99906065, "lastCommunicationTime": null, "postalCode": "", "statusValue": "In Service", "testStation": false, "stAddress1": "Sullivan St & Washington Sq", "stationName": "Sullivan St & Washington Sq", "landMark": "", "latitude": 40.73047747, "statusKey": 1, "availableBikes": 3, "id": 336, "location": ""}, "337": {"availableDocks": 15, "totalDocks": 37, "city": "", "altitude": "", "stAddress2": "", "longitude": -74.00838676, "lastCommunicationTime": null, "postalCode": "", "statusValue": "In Service", "testStation": false, "stAddress1": "Old Slip and Front Street", "stationName": "Old Slip and Front Street", "landMark": "", "latitude": 40.7037992, "statusKey": 1, "availableBikes": 11, "id": 337, "location": ""}, "339": {"availableDocks": 8, "totalDocks": 24, "city": "", "altitude": "", "stAddress2": "", "longitude": -73.97422494, "lastCommunicationTime": null, "postalCode": "", "statusValue": "In Service", "testStation": false, "stAddress1": "Avenue D & E 12 Street", "stationName": "Avenue D & E 12 Street", "landMark": "", "latitude": 40.72580614, "statusKey": 1, "availableBikes": 7, "id": 339, "location": ""}, "340": {"availableDocks": 27, "totalDocks": 27, "city": "", "altitude": "", "stAddress2": "", "longitude": -73.98776323, "lastCommunicationTime": null, "postalCode": "", "statusValue": "Not In Service", "testStation": false, "stAddress1": "Madison & Clinton", "stationName": "Madison & Clinton", "landMark": "", "latitude": 40.71269042, "statusKey": 3, "availableBikes": 0, "id": 340, "location": ""}, "341": {"availableDocks": 1, "totalDocks": 19, "city": "", "altitude": "", "stAddress2": "", "longitude": -73.97628939, "lastCommunicationTime": null, "postalCode": "", "statusValue": "In Service", "testStation": false, "stAddress1": "Stanton St & Mangin St", "stationName": "Stanton St & Mangin St", "landMark": "", "latitude": 40.71782143, "statusKey": 1, "availableBikes": 15, "id": 341, "location": ""}, "342": {"availableDocks": 18, "totalDocks": 29, "city": "", "altitude": "", "stAddress2": "", "longitude": -73.98016555, "lastCommunicationTime": null, "postalCode": "", "statusValue": "In Service", "testStation": false, "stAddress1": "Columbia St & Rivington St", "stationName": "Columbia St & Rivington St", "landMark": "", "latitude": 40.71739973, "statusKey": 1, "availableBikes": 9, "id": 342, "location": ""}, "343": {"availableDocks": 0, "totalDocks": 23, "city": "", "altitude": "", "stAddress2": "", "longitude": -73.96986848, "lastCommunicationTime": null, "postalCode": "", "statusValue": "In Service", "testStation": false, "stAddress1": "Clinton Av & Flushing Av", "stationName": "Clinton Av & Flushing Av", "landMark": "", "latitude": 40.69794, "statusKey": 1, "availableBikes": 20, "id": 343, "location": ""}, "344": {"availableDocks": 12, "totalDocks": 23, "city": "", "altitude": "", "stAddress2": "", "longitude": -73.95380904, "lastCommunicationTime": null, "postalCode": "", "statusValue": "In Service", "testStation": false, "stAddress1": "Monroe St & Bedford Av", "stationName": "Monroe St & Bedford Av", "landMark": "", "latitude": 40.6851443, "statusKey": 1, "availableBikes": 9, "id": 344, "location": ""}, "345": {"availableDocks": 17, "totalDocks": 35, "city": "", "altitude": "", "stAddress2": "", "longitude": -73.99704374, "lastCommunicationTime": null, "postalCode": "", "statusValue": "In Service", "testStation": false, "stAddress1": "W 13 Street & 6 Avenue", "stationName": "W 13 Street & 6 Avenue", "landMark": "", "latitude": 40.73649403, "statusKey": 1, "availableBikes": 18, "id": 345, "location": ""}, "346": {"availableDocks": 17, "totalDocks": 27, "city": "", "altitude": "", "stAddress2": "", "longitude": -74.00618026, "lastCommunicationTime": null, "postalCode": "", "statusValue": "In Service", "testStation": false, "stAddress1": "Bank St & Hudson St", "stationName": "Bank St & Hudson St", "landMark": "", "latitude": 40.73652889, "statusKey": 1, "availableBikes": 10, "id": 346, "location": ""}, "347": {"availableDocks": 1, "totalDocks": 35, "city": "", "altitude": "", "stAddress2": "", "longitude": -74.00748842, "lastCommunicationTime": null, "postalCode": "", "statusValue": "In Service", "testStation": false, "stAddress1": "W Houston St & Hudson St", "stationName": "W Houston St & Hudson St", "landMark": "", "latitude": 40.72873888, "statusKey": 1, "availableBikes": 30, "id": 347, "location": ""}, "348": {"availableDocks": 8, "totalDocks": 34, "city": "", "altitude": "", "stAddress2": "", "longitude": -74.00154702, "lastCommunicationTime": null, "postalCode": "", "statusValue": "In Service", "testStation": false, "stAddress1": "West Broadway & Spring St", "stationName": "West Broadway & Spring St", "landMark": "", "latitude": 40.72490985, "statusKey": 1, "availableBikes": 22, "id": 348, "location": ""}, "349": {"availableDocks": 20, "totalDocks": 23, "city": "", "altitude": "", "stAddress2": "", "longitude": -73.98329859, "lastCommunicationTime": null, "postalCode": "", "statusValue": "In Service", "testStation": false, "stAddress1": "Rivington St and Ridge St", "stationName": "Rivington St and Ridge St", "landMark": "", "latitude": 40.71850211, "statusKey": 1, "availableBikes": 2, "id": 349, "location": ""}, "350": {"availableDocks": 27, "totalDocks": 28, "city": "", "altitude": "", "stAddress2": "", "longitude": -73.9870295, "lastCommunicationTime": null, "postalCode": "", "statusValue": "In Service", "testStation": false, "stAddress1": "Clinton St & Grand St", "stationName": "Clinton St & Grand St", "landMark": "", "latitude": 40.71559509, "statusKey": 1, "availableBikes": 0, "id": 350, "location": ""}, "351": {"availableDocks": 23, "totalDocks": 39, "city": "", "altitude": "", "stAddress2": "", "longitude": -74.00612572, "lastCommunicationTime": null, "postalCode": "", "statusValue": "In Service", "testStation": false, "stAddress1": "Front St & Pine St", "stationName": "Front St & Pine St", "landMark": "", "latitude": 40.70530954, "statusKey": 1, "availableBikes": 13, "id": 351, "location": ""}, "352": {"availableDocks": 7, "totalDocks": 36, "city": "", "altitude": "", "stAddress2": "", "longitude": -73.97722479, "lastCommunicationTime": null, "postalCode": "", "statusValue": "In Service", "testStation": false, "stAddress1": "W 56 Street and 6 Avenue", "stationName": "W 56 Street and 6 Avenue", "landMark": "", "latitude": 40.76340613, "statusKey": 1, "availableBikes": 28, "id": 352, "location": ""}, "353": {"availableDocks": 11, "totalDocks": 27, "city": "", "altitude": "", "stAddress2": "", "longitude": -73.97431458, "lastCommunicationTime": null, "postalCode": "", "statusValue": "In Service", "testStation": false, "stAddress1": "S Portland Av & Hanson Pl", "stationName": "S Portland Av & Hanson Pl", "landMark": "", "latitude": 40.68539567, "statusKey": 1, "availableBikes": 14, "id": 353, "location": ""}, "354": {"availableDocks": 18, "totalDocks": 31, "city": "", "altitude": "", "stAddress2": "", "longitude": -73.96223558, "lastCommunicationTime": null, "postalCode": "", "statusValue": "In Service", "testStation": false, "stAddress1": "Myrtle Av & Emerson Pl", "stationName": "Myrtle Av & Emerson Pl", "landMark": "", "latitude": 40.69363137, "statusKey": 1, "availableBikes": 11, "id": 354, "location": ""}, "355": {"availableDocks": 19, "totalDocks": 43, "city": "", "altitude": "", "stAddress2": "", "longitude": -73.99974372, "lastCommunicationTime": null, "postalCode": "", "statusValue": "In Service", "testStation": false, "stAddress1": "Bayard St & Baxter St", "stationName": "Bayard St & Baxter St", "landMark": "", "latitude": 40.71602118, "statusKey": 1, "availableBikes": 22, "id": 355, "location": ""}, "356": {"availableDocks": 14, "totalDocks": 23, "city": "", "altitude": "", "stAddress2": "", "longitude": -73.98261206, "lastCommunicationTime": null, "postalCode": "", "statusValue": "In Service", "testStation": false, "stAddress1": "Bialystoker Pl & Delancey St", "stationName": "Bialystoker Pl & Delancey St", "landMark": "", "latitude": 40.71622644, "statusKey": 1, "availableBikes": 7, "id": 356, "location": ""}, "357": {"availableDocks": 15, "totalDocks": 27, "city": "", "altitude": "", "stAddress2": "", "longitude": -73.99158043, "lastCommunicationTime": null, "postalCode": "", "statusValue": "In Service", "testStation": false, "stAddress1": "E 11 Street & Broadway", "stationName": "E 11 Street & Broadway", "landMark": "", "latitude": 40.73261787, "statusKey": 1, "availableBikes": 8, "id": 357, "location": ""}, "358": {"availableDocks": 15, "totalDocks": 36, "city": "", "altitude": "", "stAddress2": "", "longitude": -74.00711384, "lastCommunicationTime": null, "postalCode": "", "statusValue": "In Service", "testStation": false, "stAddress1": "Christopher & Greenwich St", "stationName": "Christopher & Greenwich St", "landMark": "", "latitude": 40.73291553, "statusKey": 1, "availableBikes": 21, "id": 358, "location": ""}, "359": {"availableDocks": 12, "totalDocks": 55, "city": "", "altitude": "", "stAddress2": "", "longitude": -73.97498696, "lastCommunicationTime": null, "postalCode": "", "statusValue": "In Service", "testStation": false, "stAddress1": "E 47 St and Park Av", "stationName": "E 47 St and Park Av", "landMark": "", "latitude": 40.75510267, "statusKey": 1, "availableBikes": 39, "id": 359, "location": ""}, "360": {"availableDocks": 9, "totalDocks": 39, "city": "", "altitude": "", "stAddress2": "", "longitude": -74.00887308, "lastCommunicationTime": null, "postalCode": "", "statusValue": "In Service", "testStation": false, "stAddress1": "William St & Pine St", "stationName": "William St & Pine St", "landMark": "", "latitude": 40.70717936, "statusKey": 1, "availableBikes": 28, "id": 360, "location": ""}, "361": {"availableDocks": 30, "totalDocks": 43, "city": "", "altitude": "", "stAddress2": "", "longitude": -73.99190759, "lastCommunicationTime": null, "postalCode": "", "statusValue": "In Service", "testStation": false, "stAddress1": "Allen St & Hester St", "stationName": "Allen St & Hester St", "landMark": "", "latitude": 40.71605866, "statusKey": 1, "availableBikes": 11, "id": 361, "location": ""}, "362": {"availableDocks": 19, "totalDocks": 57, "city": "", "altitude": "", "stAddress2": "", "longitude": -73.98753523, "lastCommunicationTime": null, "postalCode": "", "statusValue": "In Service", "testStation": false, "stAddress1": "Broadway and W 37 Street", "stationName": "Broadway and W 37 Street", "landMark": "", "latitude": 40.75172632, "statusKey": 1, "availableBikes": 21, "id": 362, "location": ""}, "363": {"availableDocks": 48, "totalDocks": 49, "city": "", "altitude": "", "stAddress2": "", "longitude": -74.01713445, "lastCommunicationTime": null, "postalCode": "", "statusValue": "Not In Service", "testStation": false, "stAddress1": "West Thames Street", "stationName": "West Thames Street", "landMark": "", "latitude": 40.70834698, "statusKey": 3, "availableBikes": 1, "id": 363, "location": ""}, "364": {"availableDocks": 11, "totalDocks": 27, "city": "", "altitude": "", "stAddress2": "", "longitude": -73.96023854, "lastCommunicationTime": null, "postalCode": "", "statusValue": "In Service", "testStation": false, "stAddress1": "Lafayette Av & Classon Av", "stationName": "Lafayette Av & Classon Av", "landMark": "", "latitude": 40.68900443, "statusKey": 1, "availableBikes": 13, "id": 364, "location": ""}, "365": {"availableDocks": 16, "totalDocks": 31, "city": "", "altitude": "", "stAddress2": "", "longitude": -73.9614583, "lastCommunicationTime": null, "postalCode": "", "statusValue": "In Service", "testStation": false, "stAddress1": "Fulton St & Grand Av", "stationName": "Fulton St & Grand Av", "landMark": "", "latitude": 40.68223166, "statusKey": 1, "availableBikes": 13, "id": 365, "location": ""}, "366": {"availableDocks": 15, "totalDocks": 33, "city": "", "altitude": "", "stAddress2": "", "longitude": -73.968896, "lastCommunicationTime": null, "postalCode": "", "statusValue": "In Service", "testStation": false, "stAddress1": "Clinton Av & Myrtle Av", "stationName": "Clinton Av & Myrtle Av", "landMark": "", "latitude": 40.693261, "statusKey": 1, "availableBikes": 11, "id": 366, "location": ""}, "367": {"availableDocks": 7, "totalDocks": 34, "city": "", "altitude": "", "stAddress2": "", "longitude": -73.97069431, "lastCommunicationTime": null, "postalCode": "", "statusValue": "In Service", "testStation": false, "stAddress1": "E 53 St and Lexington Av", "stationName": "E 53 St and Lexington Av", "landMark": "", "latitude": 40.75828065, "statusKey": 1, "availableBikes": 25, "id": 367, "location": ""}, "368": {"availableDocks": 30, "totalDocks": 39, "city": "", "altitude": "", "stAddress2": "", "longitude": -74.00214988, "lastCommunicationTime": null, "postalCode": "", "statusValue": "In Service", "testStation": false, "stAddress1": "Carmine St & 6 Av", "stationName": "Carmine St & 6 Av", "landMark": "", "latitude": 40.73038599, "statusKey": 1, "availableBikes": 8, "id": 368, "location": ""}, "369": {"availableDocks": 7, "totalDocks": 39, "city": "", "altitude": "", "stAddress2": "", "longitude": -74.00026394, "lastCommunicationTime": null, "postalCode": "", "statusValue": "In Service", "testStation": false, "stAddress1": "Washington Pl & 6 Av", "stationName": "Washington Pl & 6 Av", "landMark": "", "latitude": 40.73224119, "statusKey": 1, "availableBikes": 29, "id": 369, "location": ""}, "372": {"availableDocks": 5, "totalDocks": 27, "city": "", "altitude": "", "stAddress2": "", "longitude": -73.958089, "lastCommunicationTime": null, "postalCode": "", "statusValue": "In Service", "testStation": false, "stAddress1": "Franklin & Myrtle Ave", "stationName": "Franklin & Myrtle Ave", "landMark": "", "latitude": 40.694528, "statusKey": 1, "availableBikes": 14, "id": 372, "location": ""}, "373": {"availableDocks": 7, "totalDocks": 19, "city": "", "altitude": "", "stAddress2": "", "longitude": -73.95381995, "lastCommunicationTime": null, "postalCode": "", "statusValue": "In Service", "testStation": false, "stAddress1": "Willoughby Av & Walworth", "stationName": "Willoughby Av & Walworth", "landMark": "", "latitude": 40.69331716, "statusKey": 1, "availableBikes": 7, "id": 373, "location": ""}, "2007": {"availableDocks": 0, "totalDocks": 0, "city": "", "altitude": "", "stAddress2": "", "longitude": -73.95643107, "lastCommunicationTime": null, "postalCode": "", "statusValue": "Planned", "testStation": false, "stAddress1": "Dekalb Av & Skillman St", "stationName": "Dekalb Av & Skillman St", "landMark": "", "latitude": 40.69069495, "statusKey": 2, "availableBikes": 0, "id": 2007, "location": ""}, "375": {"availableDocks": 5, "totalDocks": 15, "city": "", "altitude": "", "stAddress2": "", "longitude": -73.99695094, "lastCommunicationTime": null, "postalCode": "", "statusValue": "In Service", "testStation": false, "stAddress1": "Mercer St & Bleecker St", "stationName": "Mercer St & Bleecker St", "landMark": "", "latitude": 40.72679454, "statusKey": 1, "availableBikes": 8, "id": 375, "location": ""}, "376": {"availableDocks": 15, "totalDocks": 43, "city": "", "altitude": "", "stAddress2": "", "longitude": -74.00722156, "lastCommunicationTime": null, "postalCode": "", "statusValue": "Not In Service", "testStation": false, "stAddress1": "John St & William St", "stationName": "John St & William St", "landMark": "", "latitude": 40.70862144, "statusKey": 3, "availableBikes": 25, "id": 376, "location": ""}, "377": {"availableDocks": 24, "totalDocks": 47, "city": "", "altitude": "", "stAddress2": "", "longitude": -74.00566443, "lastCommunicationTime": null, "postalCode": "", "statusValue": "In Service", "testStation": false, "stAddress1": "6 Avenue & Canal Street", "stationName": "6 Avenue & Canal Street", "landMark": "", "latitude": 40.72243797, "statusKey": 1, "availableBikes": 21, "id": 377, "location": ""}, "380": {"availableDocks": 36, "totalDocks": 39, "city": "", "altitude": "", "stAddress2": "", "longitude": -74.00293877, "lastCommunicationTime": null, "postalCode": "", "statusValue": "In Service", "testStation": false, "stAddress1": "W 4 St & 7 Av South", "stationName": "W 4 St & 7 Av South", "landMark": "", "latitude": 40.73401143, "statusKey": 1, "availableBikes": 1, "id": 380, "location": ""}, "2026": {"availableDocks": 0, "totalDocks": 0, "city": "", "altitude": "", "stAddress2": "", "longitude": -73.98191841, "lastCommunicationTime": null, "postalCode": "", "statusValue": "Planned", "testStation": false, "stAddress1": "Broadway & W 60 Street", "stationName": "Broadway & W 60 Street", "landMark": "", "latitude": 40.76915505, "statusKey": 2, "availableBikes": 0, "id": 2026, "location": ""}, "382": {"availableDocks": 17, "totalDocks": 36, "city": "", "altitude": "", "stAddress2": "", "longitude": -73.99200509, "lastCommunicationTime": null, "postalCode": "", "statusValue": "In Service", "testStation": false, "stAddress1": "University Pl & E 14 St", "stationName": "University Pl & E 14 St", "landMark": "", "latitude": 40.73492695, "statusKey": 1, "availableBikes": 16, "id": 382, "location": ""}, "383": {"availableDocks": 20, "totalDocks": 41, "city": "", "altitude": "", "stAddress2": "", "longitude": -74.00083692, "lastCommunicationTime": null, "postalCode": "", "statusValue": "In Service", "testStation": false, "stAddress1": "Greenwich Av & 7 Av", "stationName": "Greenwich Av & 7 Av", "landMark": "", "latitude": 40.73625106, "statusKey": 1, "availableBikes": 20, "id": 383, "location": ""}, "384": {"availableDocks": 20, "totalDocks": 31, "city": "", "altitude": "", "stAddress2": "", "longitude": -73.9659641, "lastCommunicationTime": null, "postalCode": "", "statusValue": "In Service", "testStation": false, "stAddress1": "Fulton St & Waverly Av", "stationName": "Fulton St & Waverly Av", "landMark": "", "latitude": 40.68317813, "statusKey": 1, "availableBikes": 11, "id": 384, "location": ""}, "386": {"availableDocks": 18, "totalDocks": 43, "city": "", "altitude": "", "stAddress2": "", "longitude": -74.00234482, "lastCommunicationTime": null, "postalCode": "", "statusValue": "In Service", "testStation": false, "stAddress1": "Centre St & Worth St", "stationName": "Centre St & Worth St", "landMark": "", "latitude": 40.71494807, "statusKey": 1, "availableBikes": 19, "id": 386, "location": ""}, "387": {"availableDocks": 19, "totalDocks": 39, "city": "", "altitude": "", "stAddress2": "", "longitude": -74.0046073, "lastCommunicationTime": null, "postalCode": "", "statusValue": "In Service", "testStation": false, "stAddress1": "Centre St & Chambers St", "stationName": "Centre St & Chambers St", "landMark": "", "latitude": 40.71273266, "statusKey": 1, "availableBikes": 17, "id": 387, "location": ""}, "389": {"availableDocks": 12, "totalDocks": 27, "city": "", "altitude": "", "stAddress2": "", "longitude": -73.96525063, "lastCommunicationTime": null, "postalCode": "", "statusValue": "In Service", "testStation": false, "stAddress1": "Broadway and Berry", "stationName": "Broadway and Berry", "landMark": "", "latitude": 40.71044554, "statusKey": 1, "availableBikes": 14, "id": 389, "location": ""}, "390": {"availableDocks": 13, "totalDocks": 31, "city": "", "altitude": "", "stAddress2": "", "longitude": -73.9842844, "lastCommunicationTime": null, "postalCode": "", "statusValue": "In Service", "testStation": false, "stAddress1": "Duffield St & Willoughby St", "stationName": "Duffield St & Willoughby St", "landMark": "", "latitude": 40.69221589, "statusKey": 1, "availableBikes": 18, "id": 390, "location": ""}, "391": {"availableDocks": 17, "totalDocks": 31, "city": "", "altitude": "", "stAddress2": "", "longitude": -73.99344559, "lastCommunicationTime": null, "postalCode": "", "statusValue": "In Service", "testStation": false, "stAddress1": "Clark St & Henry St", "stationName": "Clark St & Henry St", "landMark": "", "latitude": 40.69760127, "statusKey": 1, "availableBikes": 10, "id": 391, "location": ""}, "392": {"availableDocks": 10, "totalDocks": 35, "city": "", "altitude": "", "stAddress2": "", "longitude": -73.9872478, "lastCommunicationTime": null, "postalCode": "", "statusValue": "In Service", "testStation": false, "stAddress1": "Jay St and Tech Pl", "stationName": "Jay St and Tech Pl", "landMark": "", "latitude": 40.69507866, "statusKey": 1, "availableBikes": 20, "id": 392, "location": ""}, "393": {"availableDocks": 19, "totalDocks": 31, "city": "", "altitude": "", "stAddress2": "", "longitude": -73.97995466, "lastCommunicationTime": null, "postalCode": "", "statusValue": "In Service", "testStation": false, "stAddress1": "E 5 Street & Avenue C", "stationName": "E 5 Street & Avenue C", "landMark": "", "latitude": 40.72299208, "statusKey": 1, "availableBikes": 10, "id": 393, "location": ""}, "394": {"availableDocks": 33, "totalDocks": 36, "city": "", "altitude": "", "stAddress2": "", "longitude": -73.97768752, "lastCommunicationTime": null, "postalCode": "", "statusValue": "In Service", "testStation": false, "stAddress1": "E 9 Street & Avenue C", "stationName": "E 9 Street & Avenue C", "landMark": "", "latitude": 40.72521311, "statusKey": 1, "availableBikes": 3, "id": 394, "location": ""}, "395": {"availableDocks": 13, "totalDocks": 30, "city": "", "altitude": "", "stAddress2": "", "longitude": -73.98410637, "lastCommunicationTime": null, "postalCode": "", "statusValue": "In Service", "testStation": false, "stAddress1": "Bond St & Schermerhorn St", "stationName": "Bond St & Schermerhorn St", "landMark": "", "latitude": 40.68807003, "statusKey": 1, "availableBikes": 15, "id": 395, "location": ""}, "396": {"availableDocks": 13, "totalDocks": 25, "city": "", "altitude": "", "stAddress2": "", "longitude": -73.9557689392, "lastCommunicationTime": null, "postalCode": "", "statusValue": "In Service", "testStation": false, "stAddress1": "Lefferts & Franklin", "stationName": "Lefferts Pl & Franklin Av", "landMark": "", "latitude": 40.680342423, "statusKey": 1, "availableBikes": 12, "id": 396, "location": "Bedford-Stuyvesant"}, "397": {"availableDocks": 6, "totalDocks": 27, "city": "", "altitude": "", "stAddress2": "", "longitude": -73.96922273, "lastCommunicationTime": null, "postalCode": "", "statusValue": "In Service", "testStation": false, "stAddress1": "Fulton St & Clermont Av", "stationName": "Fulton St & Clermont Av", "landMark": "", "latitude": 40.68415748, "statusKey": 1, "availableBikes": 18, "id": 397, "location": ""}, "398": {"availableDocks": 8, "totalDocks": 31, "city": "", "altitude": "", "stAddress2": "", "longitude": -73.9999786, "lastCommunicationTime": null, "postalCode": "", "statusValue": "In Service", "testStation": false, "stAddress1": "Atlantic Av & Furman St", "stationName": "Atlantic Av & Furman St", "landMark": "", "latitude": 40.69165183, "statusKey": 1, "availableBikes": 19, "id": 398, "location": ""}, "399": {"availableDocks": 20, "totalDocks": 27, "city": "", "altitude": "", "stAddress2": "", "longitude": -73.9647628, "lastCommunicationTime": null, "postalCode": "", "statusValue": "In Service", "testStation": false, "stAddress1": "St. James Pl & Lafayette Av", "stationName": "St. James Pl & Lafayette Av", "landMark": "", "latitude": 40.68851534, "statusKey": 1, "availableBikes": 5, "id": 399, "location": ""}, "400": {"availableDocks": 5, "totalDocks": 15, "city": "", "altitude": "", "stAddress2": "", "longitude": -73.98178024, "lastCommunicationTime": null, "postalCode": "", "statusValue": "In Service", "testStation": false, "stAddress1": "Pitt St & Stanton St", "stationName": "Pitt St & Stanton St", "landMark": "", "latitude": 40.71926081, "statusKey": 1, "availableBikes": 9, "id": 400, "location": ""}, "401": {"availableDocks": 26, "totalDocks": 41, "city": "", "altitude": "", "stAddress2": "", "longitude": -73.98997825, "lastCommunicationTime": null, "postalCode": "", "statusValue": "In Service", "testStation": false, "stAddress1": "Allen St & Rivington St", "stationName": "Allen St & Rivington St", "landMark": "", "latitude": 40.72019576, "statusKey": 1, "availableBikes": 11, "id": 401, "location": ""}, "402": {"availableDocks": 12, "totalDocks": 42, "city": "", "altitude": "", "stAddress2": "", "longitude": -73.98955109, "lastCommunicationTime": null, "postalCode": "", "statusValue": "Not In Service", "testStation": false, "stAddress1": "Broadway & E 22 St", "stationName": "Broadway & E 22 St", "landMark": "", "latitude": 40.7403432, "statusKey": 3, "availableBikes": 26, "id": 402, "location": ""}, "403": {"availableDocks": 21, "totalDocks": 31, "city": "", "altitude": "", "stAddress2": "", "longitude": -73.99069656, "lastCommunicationTime": null, "postalCode": "", "statusValue": "In Service", "testStation": false, "stAddress1": "E 2 Street and 2 Avenue", "stationName": "E 2 Street and 2 Avenue", "landMark": "", "latitude": 40.72502876, "statusKey": 1, "availableBikes": 10, "id": 403, "location": ""}, "404": {"availableDocks": 18, "totalDocks": 39, "city": "", "altitude": "", "stAddress2": "", "longitude": -74.00550867, "lastCommunicationTime": null, "postalCode": "", "statusValue": "In Service", "testStation": false, "stAddress1": "9 Avenue & W 14 Street", "stationName": "9 Avenue & W 14 Street", "landMark": "", "latitude": 40.7405826, "statusKey": 1, "availableBikes": 20, "id": 404, "location": ""}, "405": {"availableDocks": 17, "totalDocks": 37, "city": "", "altitude": "", "stAddress2": "", "longitude": -74.00787235, "lastCommunicationTime": null, "postalCode": "", "statusValue": "In Service", "testStation": false, "stAddress1": "Gansevoort & Washington", "stationName": "Gansevoort & Washington", "landMark": "", "latitude": 40.73943587, "statusKey": 1, "availableBikes": 11, "id": 405, "location": ""}, "406": {"availableDocks": 15, "totalDocks": 34, "city": "", "altitude": "", "stAddress2": "", "longitude": -73.99595065, "lastCommunicationTime": null, "postalCode": "", "statusValue": "In Service", "testStation": false, "stAddress1": "Hicks St & Montague St", "stationName": "Hicks St & Montague St", "landMark": "", "latitude": 40.69512845, "statusKey": 1, "availableBikes": 16, "id": 406, "location": ""}, "407": {"availableDocks": 9, "totalDocks": 23, "city": "", "altitude": "", "stAddress2": "", "longitude": -73.99104388, "lastCommunicationTime": null, "postalCode": "", "statusValue": "In Service", "testStation": false, "stAddress1": "Cadman Plz W & Middagh", "stationName": "Cadman Plz W & Middagh", "landMark": "", "latitude": 40.70010145, "statusKey": 1, "availableBikes": 13, "id": 407, "location": ""}, "408": {"availableDocks": 8, "totalDocks": 23, "city": "", "altitude": "", "stAddress2": "", "longitude": -73.99400398, "lastCommunicationTime": null, "postalCode": "", "statusValue": "In Service", "testStation": false, "stAddress1": "Market St & Cherry St", "stationName": "Market St & Cherry St", "landMark": "", "latitude": 40.71076228, "statusKey": 1, "availableBikes": 13, "id": 408, "location": ""}, "410": {"availableDocks": 26, "totalDocks": 35, "city": "", "altitude": "", "stAddress2": "", "longitude": -73.98517977, "lastCommunicationTime": null, "postalCode": "", "statusValue": "In Service", "testStation": false, "stAddress1": "Suffolk St & Stanton St", "stationName": "Suffolk St & Stanton St", "landMark": "", "latitude": 40.72066442, "statusKey": 1, "availableBikes": 9, "id": 410, "location": ""}, "411": {"availableDocks": 12, "totalDocks": 23, "city": "", "altitude": "", "stAddress2": "", "longitude": -73.97668709, "lastCommunicationTime": null, "postalCode": "", "statusValue": "In Service", "testStation": false, "stAddress1": "E 6 Street & Avenue D", "stationName": "E 6 Street & Avenue D", "landMark": "", "latitude": 40.72228087, "statusKey": 1, "availableBikes": 11, "id": 411, "location": ""}, "412": {"availableDocks": 6, "totalDocks": 28, "city": "", "altitude": "", "stAddress2": "", "longitude": -73.99422366, "lastCommunicationTime": null, "postalCode": "", "statusValue": "In Service", "testStation": false, "stAddress1": "Forsyth St & Canal St", "stationName": "Forsyth St & Canal St", "landMark": "", "latitude": 40.7158155, "statusKey": 1, "availableBikes": 19, "id": 412, "location": ""}, "414": {"availableDocks": 10, "totalDocks": 24, "city": "", "altitude": "", "stAddress2": "", "longitude": -73.98765762, "lastCommunicationTime": null, "postalCode": "", "statusValue": "In Service", "testStation": false, "stAddress1": "Pearl St & Anchorage Pl", "stationName": "Pearl St & Anchorage Pl", "landMark": "", "latitude": 40.70281858, "statusKey": 1, "availableBikes": 14, "id": 414, "location": ""}, "415": {"availableDocks": 1, "totalDocks": 42, "city": "", "altitude": "", "stAddress2": "", "longitude": -74.00926027, "lastCommunicationTime": null, "postalCode": "", "statusValue": "In Service", "testStation": false, "stAddress1": "Pearl St & Hanover Sq", "stationName": "Pearl St & Hanover Sq", "landMark": "", "latitude": 40.7047177, "statusKey": 1, "availableBikes": 33, "id": 415, "location": ""}, "416": {"availableDocks": 22, "totalDocks": 31, "city": "", "altitude": "", "stAddress2": "", "longitude": -73.97265183, "lastCommunicationTime": null, "postalCode": "", "statusValue": "In Service", "testStation": false, "stAddress1": "Cumberland St & Lafayette", "stationName": "Cumberland St & Lafayette", "landMark": "", "latitude": 40.68753406, "statusKey": 1, "availableBikes": 9, "id": 416, "location": ""}, "417": {"availableDocks": 21, "totalDocks": 47, "city": "", "altitude": "", "stAddress2": "", "longitude": -74.01020234, "lastCommunicationTime": null, "postalCode": "", "statusValue": "In Service", "testStation": false, "stAddress1": "Barclay St & Church St", "stationName": "Barclay St & Church St", "landMark": "", "latitude": 40.71291224, "statusKey": 1, "availableBikes": 22, "id": 417, "location": ""}, "418": {"availableDocks": 15, "totalDocks": 23, "city": "", "altitude": "", "stAddress2": "", "longitude": -73.982578, "lastCommunicationTime": null, "postalCode": "", "statusValue": "In Service", "testStation": false, "stAddress1": "Front St & Gold St", "stationName": "Front St & Gold St", "landMark": "", "latitude": 40.70224, "statusKey": 1, "availableBikes": 5, "id": 418, "location": ""}, "419": {"availableDocks": 12, "totalDocks": 23, "city": "", "altitude": "", "stAddress2": "", "longitude": -73.97355569, "lastCommunicationTime": null, "postalCode": "", "statusValue": "In Service", "testStation": false, "stAddress1": "Carlton Av & Park Av", "stationName": "Carlton Av & Park Av", "landMark": "", "latitude": 40.69580705, "statusKey": 1, "availableBikes": 9, "id": 419, "location": ""}, "420": {"availableDocks": 7, "totalDocks": 23, "city": "", "altitude": "", "stAddress2": "", "longitude": -73.96968902, "lastCommunicationTime": null, "postalCode": "", "statusValue": "In Service", "testStation": false, "stAddress1": "Clermont Av & Lafayette Av", "stationName": "Clermont Av & Lafayette Av", "landMark": "", "latitude": 40.68764484, "statusKey": 1, "availableBikes": 7, "id": 420, "location": ""}, "421": {"availableDocks": 12, "totalDocks": 19, "city": "", "altitude": "", "stAddress2": "", "longitude": -73.97129668, "lastCommunicationTime": null, "postalCode": "", "statusValue": "In Service", "testStation": false, "stAddress1": "Clermont Av & Park Av", "stationName": "Clermont Av & Park Av", "landMark": "", "latitude": 40.69573398, "statusKey": 1, "availableBikes": 7, "id": 421, "location": ""}, "422": {"availableDocks": 34, "totalDocks": 55, "city": "", "altitude": "", "stAddress2": "", "longitude": -73.99040196, "lastCommunicationTime": null, "postalCode": "", "statusValue": "In Service", "testStation": false, "stAddress1": "11 Avenue and W 59 Street", "stationName": "11 Avenue and W 59 Street", "landMark": "", "latitude": 40.7714846, "statusKey": 1, "availableBikes": 19, "id": 422, "location": ""}, "423": {"availableDocks": 34, "totalDocks": 39, "city": "", "altitude": "", "stAddress2": "", "longitude": -73.98690506, "lastCommunicationTime": null, "postalCode": "", "statusValue": "In Service", "testStation": false, "stAddress1": "W 54 St & 9 Av", "stationName": "W 54 St & 9 Av", "landMark": "", "latitude": 40.76584941, "statusKey": 1, "availableBikes": 4, "id": 423, "location": ""},